$GPGGA,132827.136,4846.846,N,00228.447,E,1,12,1.0,0.0,M,0.0,M,,*6C
$GPGSA,A,3,01,02,03,04,05,06,07,08,09,10,11,12,1.0,1.0,1.0*30
$GPRMC,132827.136,A,4846.846,N,00228.447,E,038.8,227.3,240620,000.0,W*7D
$GPGGA,132828.136,4846.838,N,00228.438,E,1,12,1.0,0.0,M,0.0,M,,*62
$GPGSA,A,3,01,02,03,04,05,06,07,08,09,10,11,12,1.0,1.0,1.0*30
$GPRMC,132828.136,A,4846.838,N,00228.438,E,038.8,227.3,240620,000.0,W*73
$GPGGA,132829.136,4846.829,N,00228.428,E,1,12,1.0,0.0,M,0.0,M,,*62
$GPGSA,A,3,01,02,03,04,05,06,07,08,09,10,11,12,1.0,1.0,1.0*30
$GPRMC,132829.136,A,4846.829,N,00228.428,E,038.8,227.3,240620,000.0,W*73
$GPGGA,132830.136,4846.820,N,00228.419,E,1,12,1.0,0.0,M,0.0,M,,*61
$GPGSA,A,3,01,02,03,04,05,06,07,08,09,10,11,12,1.0,1.0,1.0*30
$GPRMC,132830.136,A,4846.820,N,00228.419,E,038.8,227.3,240620,000.0,W*70
$GPGGA,132831.136,4846.811,N,00228.409,E,1,12,1.0,0.0,M,0.0,M,,*63
$GPGSA,A,3,01,02,03,04,05,06,07,08,09,10,11,12,1.0,1.0,1.0*30
$GPRMC,132831.136,A,4846.811,N,00228.409,E,038.8,227.3,240620,000.0,W*72
$GPGGA,132832.136,4846.803,N,00228.400,E,1,12,1.0,0.0,M,0.0,M,,*6A
$GPGSA,A,3,01,02,03,04,05,06,07,08,09,10,11,12,1.0,1.0,1.0*30
$GPRMC,132832.136,A,4846.803,N,00228.400,E,038.8,227.3,240620,000.0,W*7B
$GPGGA,132833.136,4846.794,N,00228.390,E,1,12,1.0,0.0,M,0.0,M,,*64
$GPGSA,A,3,01,02,03,04,05,06,07,08,09,10,11,12,1.0,1.0,1.0*30
$GPRMC,132833.136,A,4846.794,N,00228.390,E,038.8,227.3,240620,000.0,W*75
$GPGGA,132834.136,4846.785,N,00228.381,E,1,12,1.0,0.0,M,0.0,M,,*63
$GPGSA,A,3,01,02,03,04,05,06,07,08,09,10,11,12,1.0,1.0,1.0*30
$GPRMC,132834.136,A,4846.785,N,00228.381,E,038.8,227.3,240620,000.0,W*72
$GPGGA,132835.136,4846.777,N,00228.371,E,1,12,1.0,0.0,M,0.0,M,,*60
$GPGSA,A,3,01,02,03,04,05,06,07,08,09,10,11,12,1.0,1.0,1.0*30
$GPRMC,132835.136,A,4846.777,N,00228.371,E,038.8,227.3,240620,000.0,W*71
$GPGGA,132836.136,4846.768,N,00228.362,E,1,12,1.0,0.0,M,0.0,M,,*6F
$GPGSA,A,3,01,02,03,04,05,06,07,08,09,10,11,12,1.0,1.0,1.0*30
$GPRMC,132836.136,A,4846.768,N,00228.362,E,038.8,227.3,240620,000.0,W*7E
$GPGGA,132837.136,4846.759,N,00228.352,E,1,12,1.0,0.0,M,0.0,M,,*6F
$GPGSA,A,3,01,02,03,04,05,06,07,08,09,10,11,12,1.0,1.0,1.0*30
$GPRMC,132837.136,A,4846.759,N,00228.352,E,038.8,227.3,240620,000.0,W*7E
$GPGGA,132838.136,4846.750,N,00228.343,E,1,12,1.0,0.0,M,0.0,M,,*69
$GPGSA,A,3,01,02,03,04,05,06,07,08,09,10,11,12,1.0,1.0,1.0*30
$GPRMC,132838.136,A,4846.750,N,00228.343,E,038.8,227.3,240620,000.0,W*78
$GPGGA,132839.136,4846.742,N,00228.333,E,1,12,1.0,0.0,M,0.0,M,,*6C
$GPGSA,A,3,01,02,03,04,05,06,07,08,09,10,11,12,1.0,1.0,1.0*30
$GPRMC,132839.136,A,4846.742,N,00228.333,E,038.8,227.3,240620,000.0,W*7D
$GPGGA,132840.136,4846.733,N,00228.324,E,1,12,1.0,0.0,M,0.0,M,,*62
$GPGSA,A,3,01,02,03,04,05,06,07,08,09,10,11,12,1.0,1.0,1.0*30
$GPRMC,132840.136,A,4846.733,N,00228.324,E,038.8,227.3,240620,000.0,W*73
$GPGGA,132841.136,4846.724,N,00228.314,E,1,12,1.0,0.0,M,0.0,M,,*66
$GPGSA,A,3,01,02,03,04,05,06,07,08,09,10,11,12,1.0,1.0,1.0*30
$GPRMC,132841.136,A,4846.724,N,00228.314,E,038.8,227.3,240620,000.0,W*77
$GPGGA,132842.136,4846.715,N,00228.305,E,1,12,1.0,0.0,M,0.0,M,,*67
$GPGSA,A,3,01,02,03,04,05,06,07,08,09,10,11,12,1.0,1.0,1.0*30
$GPRMC,132842.136,A,4846.715,N,00228.305,E,038.8,227.3,240620,000.0,W*76
$GPGGA,132843.136,4846.707,N,00228.295,E,1,12,1.0,0.0,M,0.0,M,,*6D
$GPGSA,A,3,01,02,03,04,05,06,07,08,09,10,11,12,1.0,1.0,1.0*30
$GPRMC,132843.136,A,4846.707,N,00228.295,E,038.8,227.3,240620,000.0,W*7C
$GPGGA,132844.136,4846.698,N,00228.286,E,1,12,1.0,0.0,M,0.0,M,,*6F
$GPGSA,A,3,01,02,03,04,05,06,07,08,09,10,11,12,1.0,1.0,1.0*30
$GPRMC,132844.136,A,4846.698,N,00228.286,E,038.8,227.3,240620,000.0,W*7E
$GPGGA,132845.136,4846.689,N,00228.276,E,1,12,1.0,0.0,M,0.0,M,,*61
$GPGSA,A,3,01,02,03,04,05,06,07,08,09,10,11,12,1.0,1.0,1.0*30
$GPRMC,132845.136,A,4846.689,N,00228.276,E,038.8,227.3,240620,000.0,W*70
$GPGGA,132846.136,4846.680,N,00228.267,E,1,12,1.0,0.0,M,0.0,M,,*6B
$GPGSA,A,3,01,02,03,04,05,06,07,08,09,10,11,12,1.0,1.0,1.0*30
$GPRMC,132846.136,A,4846.680,N,00228.267,E,038.8,227.3,240620,000.0,W*7A
$GPGGA,132847.136,4846.672,N,00228.257,E,1,12,1.0,0.0,M,0.0,M,,*64
$GPGSA,A,3,01,02,03,04,05,06,07,08,09,10,11,12,1.0,1.0,1.0*30
$GPRMC,132847.136,A,4846.672,N,00228.257,E,038.8,227.3,240620,000.0,W*75
$GPGGA,132848.136,4846.663,N,00228.248,E,1,12,1.0,0.0,M,0.0,M,,*65
$GPGSA,A,3,01,02,03,04,05,06,07,08,09,10,11,12,1.0,1.0,1.0*30
$GPRMC,132848.136,A,4846.663,N,00228.248,E,038.8,227.3,240620,000.0,W*74
$GPGGA,132849.136,4846.654,N,00228.238,E,1,12,1.0,0.0,M,0.0,M,,*67
$GPGSA,A,3,01,02,03,04,05,06,07,08,09,10,11,12,1.0,1.0,1.0*30
$GPRMC,132849.136,A,4846.654,N,00228.238,E,038.8,227.3,240620,000.0,W*76
$GPGGA,132850.136,4846.645,N,00228.229,E,1,12,1.0,0.0,M,0.0,M,,*6F
$GPGSA,A,3,01,02,03,04,05,06,07,08,09,10,11,12,1.0,1.0,1.0*30
$GPRMC,132850.136,A,4846.645,N,00228.229,E,038.8,227.3,240620,000.0,W*7E
$GPGGA,132851.136,4846.637,N,00228.219,E,1,12,1.0,0.0,M,0.0,M,,*68
$GPGSA,A,3,01,02,03,04,05,06,07,08,09,10,11,12,1.0,1.0,1.0*30
$GPRMC,132851.136,A,4846.637,N,00228.219,E,038.8,227.3,240620,000.0,W*79
$GPGGA,132852.136,4846.628,N,00228.210,E,1,12,1.0,0.0,M,0.0,M,,*6C
$GPGSA,A,3,01,02,03,04,05,06,07,08,09,10,11,12,1.0,1.0,1.0*30
$GPRMC,132852.136,A,4846.628,N,00228.210,E,038.8,227.3,240620,000.0,W*7D
$GPGGA,132853.136,4846.619,N,00228.200,E,1,12,1.0,0.0,M,0.0,M,,*6E
$GPGSA,A,3,01,02,03,04,05,06,07,08,09,10,11,12,1.0,1.0,1.0*30
$GPRMC,132853.136,A,4846.619,N,00228.200,E,038.8,227.3,240620,000.0,W*7F
$GPGGA,132854.136,4846.610,N,00228.190,E,1,12,1.0,0.0,M,0.0,M,,*6A
$GPGSA,A,3,01,02,03,04,05,06,07,08,09,10,11,12,1.0,1.0,1.0*30
$GPRMC,132854.136,A,4846.610,N,00228.190,E,038.8,227.3,240620,000.0,W*7B
$GPGGA,132855.136,4846.602,N,00228.181,E,1,12,1.0,0.0,M,0.0,M,,*68
$GPGSA,A,3,01,02,03,04,05,06,07,08,09,10,11,12,1.0,1.0,1.0*30
$GPRMC,132855.136,A,4846.602,N,00228.181,E,038.8,227.3,240620,000.0,W*79
$GPGGA,132856.136,4846.593,N,00228.171,E,1,12,1.0,0.0,M,0.0,M,,*6F
$GPGSA,A,3,01,02,03,04,05,06,07,08,09,10,11,12,1.0,1.0,1.0*30
$GPRMC,132856.136,A,4846.593,N,00228.171,E,038.8,227.3,240620,000.0,W*7E
$GPGGA,132857.136,4846.584,N,00228.162,E,1,12,1.0,0.0,M,0.0,M,,*6A
$GPGSA,A,3,01,02,03,04,05,06,07,08,09,10,11,12,1.0,1.0,1.0*30
$GPRMC,132857.136,A,4846.584,N,00228.162,E,038.8,227.3,240620,000.0,W*7B
$GPGGA,132858.136,4846.575,N,00228.152,E,1,12,1.0,0.0,M,0.0,M,,*68
$GPGSA,A,3,01,02,03,04,05,06,07,08,09,10,11,12,1.0,1.0,1.0*30
$GPRMC,132858.136,A,4846.575,N,00228.152,E,038.8,227.3,240620,000.0,W*79
$GPGGA,132859.136,4846.567,N,00228.143,E,1,12,1.0,0.0,M,0.0,M,,*6A
$GPGSA,A,3,01,02,03,04,05,06,07,08,09,10,11,12,1.0,1.0,1.0*30
$GPRMC,132859.136,A,4846.567,N,00228.143,E,038.8,227.3,240620,000.0,W*7B
$GPGGA,132900.136,4846.558,N,00228.133,E,1,12,1.0,0.0,M,0.0,M,,*6C
$GPGSA,A,3,01,02,03,04,05,06,07,08,09,10,11,12,1.0,1.0,1.0*30
$GPRMC,132900.136,A,4846.558,N,00228.133,E,038.8,227.3,240620,000.0,W*7D
$GPGGA,132901.136,4846.549,N,00228.124,E,1,12,1.0,0.0,M,0.0,M,,*6B
$GPGSA,A,3,01,02,03,04,05,06,07,08,09,10,11,12,1.0,1.0,1.0*30
$GPRMC,132901.136,A,4846.549,N,00228.124,E,038.8,227.3,240620,000.0,W*7A
$GPGGA,132902.136,4846.540,N,00228.114,E,1,12,1.0,0.0,M,0.0,M,,*62
$GPGSA,A,3,01,02,03,04,05,06,07,08,09,10,11,12,1.0,1.0,1.0*30
$GPRMC,132902.136,A,4846.540,N,00228.114,E,038.8,227.3,240620,000.0,W*73
$GPGGA,132903.136,4846.532,N,00228.105,E,1,12,1.0,0.0,M,0.0,M,,*66
$GPGSA,A,3,01,02,03,04,05,06,07,08,09,10,11,12,1.0,1.0,1.0*30
$GPRMC,132903.136,A,4846.532,N,00228.105,E,038.8,227.3,240620,000.0,W*77
$GPGGA,132904.136,4846.523,N,00228.095,E,1,12,1.0,0.0,M,0.0,M,,*69
$GPGSA,A,3,01,02,03,04,05,06,07,08,09,10,11,12,1.0,1.0,1.0*30
$GPRMC,132904.136,A,4846.523,N,00228.095,E,038.8,227.3,240620,000.0,W*78
$GPGGA,132905.136,4846.514,N,00228.086,E,1,12,1.0,0.0,M,0.0,M,,*6E
$GPGSA,A,3,01,02,03,04,05,06,07,08,09,10,11,12,1.0,1.0,1.0*30
$GPRMC,132905.136,A,4846.514,N,00228.086,E,038.8,227.3,240620,000.0,W*7F
$GPGGA,132906.136,4846.505,N,00228.076,E,1,12,1.0,0.0,M,0.0,M,,*62
$GPGSA,A,3,01,02,03,04,05,06,07,08,09,10,11,12,1.0,1.0,1.0*30
$GPRMC,132906.136,A,4846.505,N,00228.076,E,038.8,227.3,240620,000.0,W*73
$GPGGA,132907.136,4846.497,N,00228.067,E,1,12,1.0,0.0,M,0.0,M,,*69
$GPGSA,A,3,01,02,03,04,05,06,07,08,09,10,11,12,1.0,1.0,1.0*30
$GPRMC,132907.136,A,4846.497,N,00228.067,E,038.8,227.3,240620,000.0,W*78
$GPGGA,132908.136,4846.488,N,00228.057,E,1,12,1.0,0.0,M,0.0,M,,*6B
$GPGSA,A,3,01,02,03,04,05,06,07,08,09,10,11,12,1.0,1.0,1.0*30
$GPRMC,132908.136,A,4846.488,N,00228.057,E,038.8,227.3,240620,000.0,W*7A
$GPGGA,132909.136,4846.479,N,00228.048,E,1,12,1.0,0.0,M,0.0,M,,*6A
$GPGSA,A,3,01,02,03,04,05,06,07,08,09,10,11,12,1.0,1.0,1.0*30
$GPRMC,132909.136,A,4846.479,N,00228.048,E,038.8,227.3,240620,000.0,W*7B
$GPGGA,132910.136,4846.470,N,00228.038,E,1,12,1.0,0.0,M,0.0,M,,*6C
$GPGSA,A,3,01,02,03,04,05,06,07,08,09,10,11,12,1.0,1.0,1.0*30
$GPRMC,132910.136,A,4846.470,N,00228.038,E,038.8,227.3,240620,000.0,W*7D
$GPGGA,132911.136,4846.462,N,00228.029,E,1,12,1.0,0.0,M,0.0,M,,*6E
$GPGSA,A,3,01,02,03,04,05,06,07,08,09,10,11,12,1.0,1.0,1.0*30
$GPRMC,132911.136,A,4846.462,N,00228.029,E,038.8,227.3,240620,000.0,W*7F
$GPGGA,132912.136,4846.453,N,00228.019,E,1,12,1.0,0.0,M,0.0,M,,*6C
$GPGSA,A,3,01,02,03,04,05,06,07,08,09,10,11,12,1.0,1.0,1.0*30
$GPRMC,132912.136,A,4846.453,N,00228.019,E,038.8,227.3,240620,000.0,W*7D
$GPGGA,132913.136,4846.444,N,00228.010,E,1,12,1.0,0.0,M,0.0,M,,*62
$GPGSA,A,3,01,02,03,04,05,06,07,08,09,10,11,12,1.0,1.0,1.0*30
$GPRMC,132913.136,A,4846.444,N,00228.010,E,038.8,227.3,240620,000.0,W*73
$GPGGA,132914.136,4846.436,N,00228.000,E,1,12,1.0,0.0,M,0.0,M,,*61
$GPGSA,A,3,01,02,03,04,05,06,07,08,09,10,11,12,1.0,1.0,1.0*30
$GPRMC,132914.136,A,4846.436,N,00228.000,E,038.8,227.3,240620,000.0,W*70
$GPGGA,132915.136,4846.427,N,00227.991,E,1,12,1.0,0.0,M,0.0,M,,*6E
$GPGSA,A,3,01,02,03,04,05,06,07,08,09,10,11,12,1.0,1.0,1.0*30
$GPRMC,132915.136,A,4846.427,N,00227.991,E,038.8,227.3,240620,000.0,W*7F
$GPGGA,132916.136,4846.418,N,00227.981,E,1,12,1.0,0.0,M,0.0,M,,*60
$GPGSA,A,3,01,02,03,04,05,06,07,08,09,10,11,12,1.0,1.0,1.0*30
$GPRMC,132916.136,A,4846.418,N,00227.981,E,038.8,227.3,240620,000.0,W*71
$GPGGA,132917.136,4846.409,N,00227.972,E,1,12,1.0,0.0,M,0.0,M,,*6D
$GPGSA,A,3,01,02,03,04,05,06,07,08,09,10,11,12,1.0,1.0,1.0*30
$GPRMC,132917.136,A,4846.409,N,00227.972,E,038.8,227.3,240620,000.0,W*7C
$GPGGA,132918.136,4846.401,N,00227.962,E,1,12,1.0,0.0,M,0.0,M,,*6B
$GPGSA,A,3,01,02,03,04,05,06,07,08,09,10,11,12,1.0,1.0,1.0*30
$GPRMC,132918.136,A,4846.401,N,00227.962,E,038.8,227.3,240620,000.0,W*7A
$GPGGA,132919.136,4846.392,N,00227.953,E,1,12,1.0,0.0,M,0.0,M,,*65
$GPGSA,A,3,01,02,03,04,05,06,07,08,09,10,11,12,1.0,1.0,1.0*30
$GPRMC,132919.136,A,4846.392,N,00227.953,E,038.8,227.3,240620,000.0,W*74
$GPGGA,132920.136,4846.383,N,00227.943,E,1,12,1.0,0.0,M,0.0,M,,*6E
$GPGSA,A,3,01,02,03,04,05,06,07,08,09,10,11,12,1.0,1.0,1.0*30
$GPRMC,132920.136,A,4846.383,N,00227.943,E,038.8,227.3,240620,000.0,W*7F
$GPGGA,132921.136,4846.374,N,00227.934,E,1,12,1.0,0.0,M,0.0,M,,*67
$GPGSA,A,3,01,02,03,04,05,06,07,08,09,10,11,12,1.0,1.0,1.0*30
$GPRMC,132921.136,A,4846.374,N,00227.934,E,038.8,227.3,240620,000.0,W*76
$GPGGA,132922.136,4846.366,N,00227.924,E,1,12,1.0,0.0,M,0.0,M,,*66
$GPGSA,A,3,01,02,03,04,05,06,07,08,09,10,11,12,1.0,1.0,1.0*30
$GPRMC,132922.136,A,4846.366,N,00227.924,E,038.8,227.3,240620,000.0,W*77
$GPGGA,132923.136,4846.357,N,00227.915,E,1,12,1.0,0.0,M,0.0,M,,*67
$GPGSA,A,3,01,02,03,04,05,06,07,08,09,10,11,12,1.0,1.0,1.0*30
$GPRMC,132923.136,A,4846.357,N,00227.915,E,038.8,227.3,240620,000.0,W*76
$GPGGA,132924.136,4846.348,N,00227.905,E,1,12,1.0,0.0,M,0.0,M,,*6F
$GPGSA,A,3,01,02,03,04,05,06,07,08,09,10,11,12,1.0,1.0,1.0*30
$GPRMC,132924.136,A,4846.348,N,00227.905,E,038.8,227.3,240620,000.0,W*7E
$GPGGA,132925.136,4846.339,N,00227.896,E,1,12,1.0,0.0,M,0.0,M,,*63
$GPGSA,A,3,01,02,03,04,05,06,07,08,09,10,11,12,1.0,1.0,1.0*30
$GPRMC,132925.136,A,4846.339,N,00227.896,E,038.8,227.3,240620,000.0,W*72
$GPGGA,132926.136,4846.331,N,00227.886,E,1,12,1.0,0.0,M,0.0,M,,*69
$GPGSA,A,3,01,02,03,04,05,06,07,08,09,10,11,12,1.0,1.0,1.0*30
$GPRMC,132926.136,A,4846.331,N,00227.886,E,038.8,227.3,240620,000.0,W*78
$GPGGA,132927.136,4846.322,N,00227.877,E,1,12,1.0,0.0,M,0.0,M,,*64
$GPGSA,A,3,01,02,03,04,05,06,07,08,09,10,11,12,1.0,1.0,1.0*30
$GPRMC,132927.136,A,4846.322,N,00227.877,E,038.8,227.3,240620,000.0,W*75
$GPGGA,132928.136,4846.313,N,00227.867,E,1,12,1.0,0.0,M,0.0,M,,*68
$GPGSA,A,3,01,02,03,04,05,06,07,08,09,10,11,12,1.0,1.0,1.0*30
$GPRMC,132928.136,A,4846.313,N,00227.867,E,038.8,227.3,240620,000.0,W*79
$GPGGA,132929.136,4846.304,N,00227.858,E,1,12,1.0,0.0,M,0.0,M,,*63
$GPGSA,A,3,01,02,03,04,05,06,07,08,09,10,11,12,1.0,1.0,1.0*30
$GPRMC,132929.136,A,4846.304,N,00227.858,E,038.8,227.3,240620,000.0,W*72
$GPGGA,132930.136,4846.296,N,00227.848,E,1,12,1.0,0.0,M,0.0,M,,*60
$GPGSA,A,3,01,02,03,04,05,06,07,08,09,10,11,12,1.0,1.0,1.0*30
$GPRMC,132930.136,A,4846.296,N,00227.848,E,038.8,227.3,240620,000.0,W*71
$GPGGA,132931.136,4846.287,N,00227.839,E,1,12,1.0,0.0,M,0.0,M,,*67
$GPGSA,A,3,01,02,03,04,05,06,07,08,09,10,11,12,1.0,1.0,1.0*30
$GPRMC,132931.136,A,4846.287,N,00227.839,E,038.8,227.3,240620,000.0,W*76
$GPGGA,132932.136,4846.278,N,00227.829,E,1,12,1.0,0.0,M,0.0,M,,*65
$GPGSA,A,3,01,02,03,04,05,06,07,08,09,10,11,12,1.0,1.0,1.0*30
$GPRMC,132932.136,A,4846.278,N,00227.829,E,038.8,227.3,240620,000.0,W*74
$GPGGA,132933.136,4846.269,N,00227.820,E,1,12,1.0,0.0,M,0.0,M,,*6D
$GPGSA,A,3,01,02,03,04,05,06,07,08,09,10,11,12,1.0,1.0,1.0*30
$GPRMC,132933.136,A,4846.269,N,00227.820,E,038.8,227.3,240620,000.0,W*7C
$GPGGA,132934.136,4846.261,N,00227.810,E,1,12,1.0,0.0,M,0.0,M,,*61
$GPGSA,A,3,01,02,03,04,05,06,07,08,09,10,11,12,1.0,1.0,1.0*30
$GPRMC,132934.136,A,4846.261,N,00227.810,E,038.8,227.3,240620,000.0,W*70
$GPGGA,132935.136,4846.252,N,00227.801,E,1,12,1.0,0.0,M,0.0,M,,*60
$GPGSA,A,3,01,02,03,04,05,06,07,08,09,10,11,12,1.0,1.0,1.0*30
$GPRMC,132935.136,A,4846.252,N,00227.801,E,038.8,227.3,240620,000.0,W*71
$GPGGA,132936.136,4846.243,N,00227.791,E,1,12,1.0,0.0,M,0.0,M,,*65
$GPGSA,A,3,01,02,03,04,05,06,07,08,09,10,11,12,1.0,1.0,1.0*30
$GPRMC,132936.136,A,4846.243,N,00227.791,E,038.8,227.3,240620,000.0,W*74
$GPGGA,132937.136,4846.234,N,00227.782,E,1,12,1.0,0.0,M,0.0,M,,*66
$GPGSA,A,3,01,02,03,04,05,06,07,08,09,10,11,12,1.0,1.0,1.0*30
$GPRMC,132937.136,A,4846.234,N,00227.782,E,038.8,227.3,240620,000.0,W*77
$GPGGA,132938.136,4846.226,N,00227.772,E,1,12,1.0,0.0,M,0.0,M,,*65
$GPGSA,A,3,01,02,03,04,05,06,07,08,09,10,11,12,1.0,1.0,1.0*30
$GPRMC,132938.136,A,4846.226,N,00227.772,E,038.8,227.3,240620,000.0,W*74
$GPGGA,132939.136,4846.217,N,00227.763,E,1,12,1.0,0.0,M,0.0,M,,*66
$GPGSA,A,3,01,02,03,04,05,06,07,08,09,10,11,12,1.0,1.0,1.0*30
$GPRMC,132939.136,A,4846.217,N,00227.763,E,038.8,227.3,240620,000.0,W*77
$GPGGA,132940.136,4846.208,N,00227.753,E,1,12,1.0,0.0,M,0.0,M,,*65
$GPGSA,A,3,01,02,03,04,05,06,07,08,09,10,11,12,1.0,1.0,1.0*30
$GPRMC,132940.136,A,4846.208,N,00227.753,E,038.8,227.3,240620,000.0,W*74
$GPGGA,132941.136,4846.199,N,00227.743,E,1,12,1.0,0.0,M,0.0,M,,*6E
$GPGSA,A,3,01,02,03,04,05,06,07,08,09,10,11,12,1.0,1.0,1.0*30
$GPRMC,132941.136,A,4846.199,N,00227.743,E,038.8,227.3,240620,000.0,W*7F
$GPGGA,132942.136,4846.191,N,00227.734,E,1,12,1.0,0.0,M,0.0,M,,*65
$GPGSA,A,3,01,02,03,04,05,06,07,08,09,10,11,12,1.0,1.0,1.0*30
$GPRMC,132942.136,A,4846.191,N,00227.734,E,038.8,227.3,240620,000.0,W*74
$GPGGA,132943.136,4846.182,N,00227.724,E,1,12,1.0,0.0,M,0.0,M,,*67
$GPGSA,A,3,01,02,03,04,05,06,07,08,09,10,11,12,1.0,1.0,1.0*30
$GPRMC,132943.136,A,4846.182,N,00227.724,E,038.8,227.3,240620,000.0,W*76
$GPGGA,132944.136,4846.173,N,00227.715,E,1,12,1.0,0.0,M,0.0,M,,*6C
$GPGSA,A,3,01,02,03,04,05,06,07,08,09,10,11,12,1.0,1.0,1.0*30
$GPRMC,132944.136,A,4846.173,N,00227.715,E,038.8,227.3,240620,000.0,W*7D
$GPGGA,132945.136,4846.164,N,00227.705,E,1,12,1.0,0.0,M,0.0,M,,*6A
$GPGSA,A,3,01,02,03,04,05,06,07,08,09,10,11,12,1.0,1.0,1.0*30
$GPRMC,132945.136,A,4846.164,N,00227.705,E,038.8,227.3,240620,000.0,W*7B
$GPGGA,132946.136,4846.156,N,00227.696,E,1,12,1.0,0.0,M,0.0,M,,*63
$GPGSA,A,3,01,02,03,04,05,06,07,08,09,10,11,12,1.0,1.0,1.0*30
$GPRMC,132946.136,A,4846.156,N,00227.696,E,038.8,227.3,240620,000.0,W*72
$GPGGA,132947.136,4846.147,N,00227.686,E,1,12,1.0,0.0,M,0.0,M,,*63
$GPGSA,A,3,01,02,03,04,05,06,07,08,09,10,11,12,1.0,1.0,1.0*30
$GPRMC,132947.136,A,4846.147,N,00227.686,E,038.8,227.3,240620,000.0,W*72
$GPGGA,132948.136,4846.138,N,00227.677,E,1,12,1.0,0.0,M,0.0,M,,*6A
$GPGSA,A,3,01,02,03,04,05,06,07,08,09,10,11,12,1.0,1.0,1.0*30
$GPRMC,132948.136,A,4846.138,N,00227.677,E,038.8,227.3,240620,000.0,W*7B
$GPGGA,132949.136,4846.129,N,00227.667,E,1,12,1.0,0.0,M,0.0,M,,*6A
$GPGSA,A,3,01,02,03,04,05,06,07,08,09,10,11,12,1.0,1.0,1.0*30
$GPRMC,132949.136,A,4846.129,N,00227.667,E,038.8,227.3,240620,000.0,W*7B
$GPGGA,132950.136,4846.121,N,00227.658,E,1,12,1.0,0.0,M,0.0,M,,*66
$GPGSA,A,3,01,02,03,04,05,06,07,08,09,10,11,12,1.0,1.0,1.0*30
$GPRMC,132950.136,A,4846.121,N,00227.658,E,038.8,227.3,240620,000.0,W*77
$GPGGA,132951.136,4846.112,N,00227.648,E,1,12,1.0,0.0,M,0.0,M,,*66
$GPGSA,A,3,01,02,03,04,05,06,07,08,09,10,11,12,1.0,1.0,1.0*30
$GPRMC,132951.136,A,4846.112,N,00227.648,E,038.8,227.3,240620,000.0,W*77
$GPGGA,132952.136,4846.103,N,00227.639,E,1,12,1.0,0.0,M,0.0,M,,*63
$GPGSA,A,3,01,02,03,04,05,06,07,08,09,10,11,12,1.0,1.0,1.0*30
$GPRMC,132952.136,A,4846.103,N,00227.639,E,038.8,227.3,240620,000.0,W*72
$GPGGA,132953.136,4846.095,N,00227.629,E,1,12,1.0,0.0,M,0.0,M,,*6D
$GPGSA,A,3,01,02,03,04,05,06,07,08,09,10,11,12,1.0,1.0,1.0*30
$GPRMC,132953.136,A,4846.095,N,00227.629,E,038.8,227.3,240620,000.0,W*7C
$GPGGA,132954.136,4846.086,N,00227.620,E,1,12,1.0,0.0,M,0.0,M,,*61
$GPGSA,A,3,01,02,03,04,05,06,07,08,09,10,11,12,1.0,1.0,1.0*30
$GPRMC,132954.136,A,4846.086,N,00227.620,E,038.8,227.3,240620,000.0,W*70
$GPGGA,132955.136,4846.077,N,00227.610,E,1,12,1.0,0.0,M,0.0,M,,*6D
$GPGSA,A,3,01,02,03,04,05,06,07,08,09,10,11,12,1.0,1.0,1.0*30
$GPRMC,132955.136,A,4846.077,N,00227.610,E,038.8,227.3,240620,000.0,W*7C
$GPGGA,132956.136,4846.068,N,00227.601,E,1,12,1.0,0.0,M,0.0,M,,*60
$GPGSA,A,3,01,02,03,04,05,06,07,08,09,10,11,12,1.0,1.0,1.0*30
$GPRMC,132956.136,A,4846.068,N,00227.601,E,038.8,227.3,240620,000.0,W*71
$GPGGA,132957.136,4846.060,N,00227.591,E,1,12,1.0,0.0,M,0.0,M,,*63
$GPGSA,A,3,01,02,03,04,05,06,07,08,09,10,11,12,1.0,1.0,1.0*30
$GPRMC,132957.136,A,4846.060,N,00227.591,E,038.8,227.3,240620,000.0,W*72
$GPGGA,132958.136,4846.051,N,00227.582,E,1,12,1.0,0.0,M,0.0,M,,*6C
$GPGSA,A,3,01,02,03,04,05,06,07,08,09,10,11,12,1.0,1.0,1.0*30
$GPRMC,132958.136,A,4846.051,N,00227.582,E,038.8,227.3,240620,000.0,W*7D
$GPGGA,132959.136,4846.042,N,00227.572,E,1,12,1.0,0.0,M,0.0,M,,*60
$GPGSA,A,3,01,02,03,04,05,06,07,08,09,10,11,12,1.0,1.0,1.0*30
$GPRMC,132959.136,A,4846.042,N,00227.572,E,038.8,227.3,240620,000.0,W*71
$GPGGA,133000.136,4846.033,N,00227.563,E,1,12,1.0,0.0,M,0.0,M,,*62
$GPGSA,A,3,01,02,03,04,05,06,07,08,09,10,11,12,1.0,1.0,1.0*30
$GPRMC,133000.136,A,4846.033,N,00227.563,E,038.8,227.3,240620,000.0,W*73
$GPGGA,133001.136,4846.025,N,00227.553,E,1,12,1.0,0.0,M,0.0,M,,*67
$GPGSA,A,3,01,02,03,04,05,06,07,08,09,10,11,12,1.0,1.0,1.0*30
$GPRMC,133001.136,A,4846.025,N,00227.553,E,038.8,227.3,240620,000.0,W*76
$GPGGA,133002.136,4846.016,N,00227.544,E,1,12,1.0,0.0,M,0.0,M,,*62
$GPGSA,A,3,01,02,03,04,05,06,07,08,09,10,11,12,1.0,1.0,1.0*30
$GPRMC,133002.136,A,4846.016,N,00227.544,E,038.8,227.3,240620,000.0,W*73
$GPGGA,133003.136,4846.007,N,00227.534,E,1,12,1.0,0.0,M,0.0,M,,*64
$GPGSA,A,3,01,02,03,04,05,06,07,08,09,10,11,12,1.0,1.0,1.0*30
$GPRMC,133003.136,A,4846.007,N,00227.534,E,038.8,227.3,240620,000.0,W*75
$GPGGA,133004.136,4845.998,N,00227.525,E,1,12,1.0,0.0,M,0.0,M,,*6F
$GPGSA,A,3,01,02,03,04,05,06,07,08,09,10,11,12,1.0,1.0,1.0*30
$GPRMC,133004.136,A,4845.998,N,00227.525,E,038.8,227.3,240620,000.0,W*7E
$GPGGA,133005.136,4845.990,N,00227.515,E,1,12,1.0,0.0,M,0.0,M,,*65
$GPGSA,A,3,01,02,03,04,05,06,07,08,09,10,11,12,1.0,1.0,1.0*30
$GPRMC,133005.136,A,4845.990,N,00227.515,E,038.8,227.3,240620,000.0,W*74
$GPGGA,133006.136,4845.981,N,00227.506,E,1,12,1.0,0.0,M,0.0,M,,*64
$GPGSA,A,3,01,02,03,04,05,06,07,08,09,10,11,12,1.0,1.0,1.0*30
$GPRMC,133006.136,A,4845.981,N,00227.506,E,038.8,227.3,240620,000.0,W*75
$GPGGA,133007.136,4845.972,N,00227.496,E,1,12,1.0,0.0,M,0.0,M,,*61
$GPGSA,A,3,01,02,03,04,05,06,07,08,09,10,11,12,1.0,1.0,1.0*30
$GPRMC,133007.136,A,4845.972,N,00227.496,E,038.8,227.3,240620,000.0,W*70
$GPGGA,133008.136,4845.963,N,00227.487,E,1,12,1.0,0.0,M,0.0,M,,*6E
$GPGSA,A,3,01,02,03,04,05,06,07,08,09,10,11,12,1.0,1.0,1.0*30
$GPRMC,133008.136,A,4845.963,N,00227.487,E,038.8,227.3,240620,000.0,W*7F
$GPGGA,133009.136,4845.955,N,00227.477,E,1,12,1.0,0.0,M,0.0,M,,*65
$GPGSA,A,3,01,02,03,04,05,06,07,08,09,10,11,12,1.0,1.0,1.0*30
$GPRMC,133009.136,A,4845.955,N,00227.477,E,038.8,227.3,240620,000.0,W*74
$GPGGA,133010.136,4845.946,N,00227.468,E,1,12,1.0,0.0,M,0.0,M,,*61
$GPGSA,A,3,01,02,03,04,05,06,07,08,09,10,11,12,1.0,1.0,1.0*30
$GPRMC,133010.136,A,4845.946,N,00227.468,E,038.8,227.3,240620,000.0,W*70
$GPGGA,133011.136,4845.937,N,00227.458,E,1,12,1.0,0.0,M,0.0,M,,*65
$GPGSA,A,3,01,02,03,04,05,06,07,08,09,10,11,12,1.0,1.0,1.0*30
$GPRMC,133011.136,A,4845.937,N,00227.458,E,038.8,227.3,240620,000.0,W*74
$GPGGA,133012.136,4845.928,N,00227.449,E,1,12,1.0,0.0,M,0.0,M,,*68
$GPGSA,A,3,01,02,03,04,05,06,07,08,09,10,11,12,1.0,1.0,1.0*30
$GPRMC,133012.136,A,4845.928,N,00227.449,E,038.8,227.3,240620,000.0,W*79
$GPGGA,133013.136,4845.920,N,00227.439,E,1,12,1.0,0.0,M,0.0,M,,*66
$GPGSA,A,3,01,02,03,04,05,06,07,08,09,10,11,12,1.0,1.0,1.0*30
$GPRMC,133013.136,A,4845.920,N,00227.439,E,038.8,227.3,240620,000.0,W*77
$GPGGA,133014.136,4845.911,N,00227.430,E,1,12,1.0,0.0,M,0.0,M,,*6A
$GPGSA,A,3,01,02,03,04,05,06,07,08,09,10,11,12,1.0,1.0,1.0*30
$GPRMC,133014.136,A,4845.911,N,00227.430,E,038.8,227.3,240620,000.0,W*7B
$GPGGA,133015.136,4845.902,N,00227.420,E,1,12,1.0,0.0,M,0.0,M,,*68
$GPGSA,A,3,01,02,03,04,05,06,07,08,09,10,11,12,1.0,1.0,1.0*30
$GPRMC,133015.136,A,4845.902,N,00227.420,E,038.8,227.3,240620,000.0,W*79
$GPGGA,133016.136,4845.893,N,00227.411,E,1,12,1.0,0.0,M,0.0,M,,*60
$GPGSA,A,3,01,02,03,04,05,06,07,08,09,10,11,12,1.0,1.0,1.0*30
$GPRMC,133016.136,A,4845.893,N,00227.411,E,038.8,227.3,240620,000.0,W*71
$GPGGA,133017.136,4845.885,N,00227.401,E,1,12,1.0,0.0,M,0.0,M,,*67
$GPGSA,A,3,01,02,03,04,05,06,07,08,09,10,11,12,1.0,1.0,1.0*30
$GPRMC,133017.136,A,4845.885,N,00227.401,E,038.8,227.3,240620,000.0,W*76
$GPGGA,133018.136,4845.876,N,00227.392,E,1,12,1.0,0.0,M,0.0,M,,*69
$GPGSA,A,3,01,02,03,04,05,06,07,08,09,10,11,12,1.0,1.0,1.0*30
$GPRMC,133018.136,A,4845.876,N,00227.392,E,038.8,227.3,240620,000.0,W*78
$GPGGA,133019.136,4845.867,N,00227.382,E,1,12,1.0,0.0,M,0.0,M,,*69
$GPGSA,A,3,01,02,03,04,05,06,07,08,09,10,11,12,1.0,1.0,1.0*30
$GPRMC,133019.136,A,4845.867,N,00227.382,E,038.8,227.3,240620,000.0,W*78
$GPGGA,133020.136,4845.858,N,00227.373,E,1,12,1.0,0.0,M,0.0,M,,*61
$GPGSA,A,3,01,02,03,04,05,06,07,08,09,10,11,12,1.0,1.0,1.0*30
$GPRMC,133020.136,A,4845.858,N,00227.373,E,038.8,227.3,240620,000.0,W*70
$GPGGA,133021.136,4845.850,N,00227.363,E,1,12,1.0,0.0,M,0.0,M,,*69
$GPGSA,A,3,01,02,03,04,05,06,07,08,09,10,11,12,1.0,1.0,1.0*30
$GPRMC,133021.136,A,4845.850,N,00227.363,E,038.8,227.3,240620,000.0,W*78
$GPGGA,133022.136,4845.841,N,00227.354,E,1,12,1.0,0.0,M,0.0,M,,*6E
$GPGSA,A,3,01,02,03,04,05,06,07,08,09,10,11,12,1.0,1.0,1.0*30
$GPRMC,133022.136,A,4845.841,N,00227.354,E,038.8,227.3,240620,000.0,W*7F
$GPGGA,133023.136,4845.832,N,00227.344,E,1,12,1.0,0.0,M,0.0,M,,*6A
$GPGSA,A,3,01,02,03,04,05,06,07,08,09,10,11,12,1.0,1.0,1.0*30
$GPRMC,133023.136,A,4845.832,N,00227.344,E,038.8,227.3,240620,000.0,W*7B
$GPGGA,133024.136,4845.823,N,00227.335,E,1,12,1.0,0.0,M,0.0,M,,*6B
$GPGSA,A,3,01,02,03,04,05,06,07,08,09,10,11,12,1.0,1.0,1.0*30
$GPRMC,133024.136,A,4845.823,N,00227.335,E,038.8,227.3,240620,000.0,W*7A
$GPGGA,133025.136,4845.815,N,00227.325,E,1,12,1.0,0.0,M,0.0,M,,*6E
$GPGSA,A,3,01,02,03,04,05,06,07,08,09,10,11,12,1.0,1.0,1.0*30
$GPRMC,133025.136,A,4845.815,N,00227.325,E,038.8,227.3,240620,000.0,W*7F
$GPGGA,133026.136,4845.806,N,00227.316,E,1,12,1.0,0.0,M,0.0,M,,*6F
$GPGSA,A,3,01,02,03,04,05,06,07,08,09,10,11,12,1.0,1.0,1.0*30
$GPRMC,133026.136,A,4845.806,N,00227.316,E,038.8,227.3,240620,000.0,W*7E
$GPGGA,133027.136,4845.797,N,00227.306,E,1,12,1.0,0.0,M,0.0,M,,*68
$GPGSA,A,3,01,02,03,04,05,06,07,08,09,10,11,12,1.0,1.0,1.0*30
$GPRMC,133027.136,A,4845.797,N,00227.306,E,038.8,227.3,240620,000.0,W*79
$GPGGA,133028.136,4845.788,N,00227.296,E,1,12,1.0,0.0,M,0.0,M,,*61
$GPGSA,A,3,01,02,03,04,05,06,07,08,09,10,11,12,1.0,1.0,1.0*30
$GPRMC,133028.136,A,4845.788,N,00227.296,E,038.8,227.3,240620,000.0,W*70
$GPGGA,133029.136,4845.780,N,00227.287,E,1,12,1.0,0.0,M,0.0,M,,*68
$GPGSA,A,3,01,02,03,04,05,06,07,08,09,10,11,12,1.0,1.0,1.0*30
$GPRMC,133029.136,A,4845.780,N,00227.287,E,038.8,227.3,240620,000.0,W*79
$GPGGA,133030.136,4845.771,N,00227.277,E,1,12,1.0,0.0,M,0.0,M,,*61
$GPGSA,A,3,01,02,03,04,05,06,07,08,09,10,11,12,1.0,1.0,1.0*30
$GPRMC,133030.136,A,4845.771,N,00227.277,E,038.8,227.3,240620,000.0,W*70
$GPGGA,133031.136,4845.762,N,00227.268,E,1,12,1.0,0.0,M,0.0,M,,*6C
$GPGSA,A,3,01,02,03,04,05,06,07,08,09,10,11,12,1.0,1.0,1.0*30
$GPRMC,133031.136,A,4845.762,N,00227.268,E,038.8,227.3,240620,000.0,W*7D
$GPGGA,133032.136,4845.754,N,00227.258,E,1,12,1.0,0.0,M,0.0,M,,*69
$GPGSA,A,3,01,02,03,04,05,06,07,08,09,10,11,12,1.0,1.0,1.0*30
$GPRMC,133032.136,A,4845.754,N,00227.258,E,038.8,227.3,240620,000.0,W*78
$GPGGA,133033.136,4845.745,N,00227.249,E,1,12,1.0,0.0,M,0.0,M,,*68
$GPGSA,A,3,01,02,03,04,05,06,07,08,09,10,11,12,1.0,1.0,1.0*30
$GPRMC,133033.136,A,4845.745,N,00227.249,E,038.8,227.3,240620,000.0,W*79
$GPGGA,133034.136,4845.736,N,00227.239,E,1,12,1.0,0.0,M,0.0,M,,*6C
$GPGSA,A,3,01,02,03,04,05,06,07,08,09,10,11,12,1.0,1.0,1.0*30
$GPRMC,133034.136,A,4845.736,N,00227.239,E,038.8,227.3,240620,000.0,W*7D
$GPGGA,133035.136,4845.727,N,00227.230,E,1,12,1.0,0.0,M,0.0,M,,*64
$GPGSA,A,3,01,02,03,04,05,06,07,08,09,10,11,12,1.0,1.0,1.0*30
$GPRMC,133035.136,A,4845.727,N,00227.230,E,038.8,227.3,240620,000.0,W*75
$GPGGA,133036.136,4845.719,N,00227.220,E,1,12,1.0,0.0,M,0.0,M,,*6B
$GPGSA,A,3,01,02,03,04,05,06,07,08,09,10,11,12,1.0,1.0,1.0*30
$GPRMC,133036.136,A,4845.719,N,00227.220,E,038.8,227.3,240620,000.0,W*7A
$GPGGA,133037.136,4845.710,N,00227.211,E,1,12,1.0,0.0,M,0.0,M,,*61
$GPGSA,A,3,01,02,03,04,05,06,07,08,09,10,11,12,1.0,1.0,1.0*30
$GPRMC,133037.136,A,4845.710,N,00227.211,E,038.8,227.3,240620,000.0,W*70
$GPGGA,133038.136,4845.701,N,00227.201,E,1,12,1.0,0.0,M,0.0,M,,*6F
$GPGSA,A,3,01,02,03,04,05,06,07,08,09,10,11,12,1.0,1.0,1.0*30
$GPRMC,133038.136,A,4845.701,N,00227.201,E,038.8,227.3,240620,000.0,W*7E
$GPGGA,133039.136,4845.692,N,00227.192,E,1,12,1.0,0.0,M,0.0,M,,*6C
$GPGSA,A,3,01,02,03,04,05,06,07,08,09,10,11,12,1.0,1.0,1.0*30
$GPRMC,133039.136,A,4845.692,N,00227.192,E,038.8,227.3,240620,000.0,W*7D
$GPGGA,133040.136,4845.684,N,00227.182,E,1,12,1.0,0.0,M,0.0,M,,*64
$GPGSA,A,3,01,02,03,04,05,06,07,08,09,10,11,12,1.0,1.0,1.0*30
$GPRMC,133040.136,A,4845.684,N,00227.182,E,038.8,227.3,240620,000.0,W*75
$GPGGA,133041.136,4845.675,N,00227.173,E,1,12,1.0,0.0,M,0.0,M,,*65
$GPGSA,A,3,01,02,03,04,05,06,07,08,09,10,11,12,1.0,1.0,1.0*30
$GPRMC,133041.136,A,4845.675,N,00227.173,E,038.8,227.3,240620,000.0,W*74
$GPGGA,133042.136,4845.666,N,00227.163,E,1,12,1.0,0.0,M,0.0,M,,*65
$GPGSA,A,3,01,02,03,04,05,06,07,08,09,10,11,12,1.0,1.0,1.0*30
$GPRMC,133042.136,A,4845.666,N,00227.163,E,038.8,227.3,240620,000.0,W*74
$GPGGA,133043.136,4845.657,N,00227.154,E,1,12,1.0,0.0,M,0.0,M,,*62
$GPGSA,A,3,01,02,03,04,05,06,07,08,09,10,11,12,1.0,1.0,1.0*30
$GPRMC,133043.136,A,4845.657,N,00227.154,E,038.8,227.3,240620,000.0,W*73
$GPGGA,133044.136,4845.649,N,00227.144,E,1,12,1.0,0.0,M,0.0,M,,*6B
$GPGSA,A,3,01,02,03,04,05,06,07,08,09,10,11,12,1.0,1.0,1.0*30
$GPRMC,133044.136,A,4845.649,N,00227.144,E,038.8,227.3,240620,000.0,W*7A
$GPGGA,133045.136,4845.640,N,00227.135,E,1,12,1.0,0.0,M,0.0,M,,*65
$GPGSA,A,3,01,02,03,04,05,06,07,08,09,10,11,12,1.0,1.0,1.0*30
$GPRMC,133045.136,A,4845.640,N,00227.135,E,038.8,227.3,240620,000.0,W*74
$GPGGA,133046.136,4845.631,N,00227.125,E,1,12,1.0,0.0,M,0.0,M,,*61
$GPGSA,A,3,01,02,03,04,05,06,07,08,09,10,11,12,1.0,1.0,1.0*30
$GPRMC,133046.136,A,4845.631,N,00227.125,E,038.8,227.3,240620,000.0,W*70
$GPGGA,133047.136,4845.622,N,00227.116,E,1,12,1.0,0.0,M,0.0,M,,*62
$GPGSA,A,3,01,02,03,04,05,06,07,08,09,10,11,12,1.0,1.0,1.0*30
$GPRMC,133047.136,A,4845.622,N,00227.116,E,038.8,227.3,240620,000.0,W*73
$GPGGA,133048.136,4845.614,N,00227.106,E,1,12,1.0,0.0,M,0.0,M,,*69
$GPGSA,A,3,01,02,03,04,05,06,07,08,09,10,11,12,1.0,1.0,1.0*30
$GPRMC,133048.136,A,4845.614,N,00227.106,E,038.8,227.3,240620,000.0,W*78
$GPGGA,133049.136,4845.605,N,00227.097,E,1,12,1.0,0.0,M,0.0,M,,*61
$GPGSA,A,3,01,02,03,04,05,06,07,08,09,10,11,12,1.0,1.0,1.0*30
$GPRMC,133049.136,A,4845.605,N,00227.097,E,038.8,227.3,240620,000.0,W*70
$GPGGA,133050.136,4845.596,N,00227.087,E,1,12,1.0,0.0,M,0.0,M,,*61
$GPGSA,A,3,01,02,03,04,05,06,07,08,09,10,11,12,1.0,1.0,1.0*30
$GPRMC,133050.136,A,4845.596,N,00227.087,E,038.8,227.3,240620,000.0,W*70
$GPGGA,133051.136,4845.587,N,00227.078,E,1,12,1.0,0.0,M,0.0,M,,*60
$GPGSA,A,3,01,02,03,04,05,06,07,08,09,10,11,12,1.0,1.0,1.0*30
$GPRMC,133051.136,A,4845.587,N,00227.078,E,038.8,227.3,240620,000.0,W*71
$GPGGA,133052.136,4845.579,N,00227.068,E,1,12,1.0,0.0,M,0.0,M,,*63
$GPGSA,A,3,01,02,03,04,05,06,07,08,09,10,11,12,1.0,1.0,1.0*30
$GPRMC,133052.136,A,4845.579,N,00227.068,E,038.8,227.3,240620,000.0,W*72
$GPGGA,133053.136,4845.570,N,00227.059,E,1,12,1.0,0.0,M,0.0,M,,*69
$GPGSA,A,3,01,02,03,04,05,06,07,08,09,10,11,12,1.0,1.0,1.0*30
$GPRMC,133053.136,A,4845.570,N,00227.059,E,038.8,227.3,240620,000.0,W*78
$GPGGA,133054.136,4845.561,N,00227.049,E,1,12,1.0,0.0,M,0.0,M,,*6F
$GPGSA,A,3,01,02,03,04,05,06,07,08,09,10,11,12,1.0,1.0,1.0*30
$GPRMC,133054.136,A,4845.561,N,00227.049,E,038.8,227.3,240620,000.0,W*7E
$GPGGA,133055.136,4845.552,N,00227.040,E,1,12,1.0,0.0,M,0.0,M,,*67
$GPGSA,A,3,01,02,03,04,05,06,07,08,09,10,11,12,1.0,1.0,1.0*30
$GPRMC,133055.136,A,4845.552,N,00227.040,E,038.8,227.3,240620,000.0,W*76
$GPGGA,133056.136,4845.544,N,00227.030,E,1,12,1.0,0.0,M,0.0,M,,*64
$GPGSA,A,3,01,02,03,04,05,06,07,08,09,10,11,12,1.0,1.0,1.0*30
$GPRMC,133056.136,A,4845.544,N,00227.030,E,038.8,227.3,240620,000.0,W*75
$GPGGA,133057.136,4845.535,N,00227.021,E,1,12,1.0,0.0,M,0.0,M,,*63
$GPGSA,A,3,01,02,03,04,05,06,07,08,09,10,11,12,1.0,1.0,1.0*30
$GPRMC,133057.136,A,4845.535,N,00227.021,E,038.8,227.3,240620,000.0,W*72
$GPGGA,133058.136,4845.526,N,00227.011,E,1,12,1.0,0.0,M,0.0,M,,*6D
$GPGSA,A,3,01,02,03,04,05,06,07,08,09,10,11,12,1.0,1.0,1.0*30
$GPRMC,133058.136,A,4845.526,N,00227.011,E,038.8,227.3,240620,000.0,W*7C
$GPGGA,133059.136,4845.517,N,00227.002,E,1,12,1.0,0.0,M,0.0,M,,*6C
$GPGSA,A,3,01,02,03,04,05,06,07,08,09,10,11,12,1.0,1.0,1.0*30
$GPRMC,133059.136,A,4845.517,N,00227.002,E,038.8,227.3,240620,000.0,W*7D
$GPGGA,133100.136,4845.509,N,00226.992,E,1,12,1.0,0.0,M,0.0,M,,*6F
$GPGSA,A,3,01,02,03,04,05,06,07,08,09,10,11,12,1.0,1.0,1.0*30
$GPRMC,133100.136,A,4845.509,N,00226.992,E,038.8,227.3,240620,000.0,W*7E
$GPGGA,133101.136,4845.500,N,00226.983,E,1,12,1.0,0.0,M,0.0,M,,*67
$GPGSA,A,3,01,02,03,04,05,06,07,08,09,10,11,12,1.0,1.0,1.0*30
$GPRMC,133101.136,A,4845.500,N,00226.983,E,038.8,227.3,240620,000.0,W*76
$GPGGA,133102.136,4845.491,N,00226.973,E,1,12,1.0,0.0,M,0.0,M,,*62
$GPGSA,A,3,01,02,03,04,05,06,07,08,09,10,11,12,1.0,1.0,1.0*30
$GPRMC,133102.136,A,4845.491,N,00226.973,E,038.8,227.3,240620,000.0,W*73
$GPGGA,133103.136,4845.482,N,00226.964,E,1,12,1.0,0.0,M,0.0,M,,*67
$GPGSA,A,3,01,02,03,04,05,06,07,08,09,10,11,12,1.0,1.0,1.0*30
$GPRMC,133103.136,A,4845.482,N,00226.964,E,038.8,227.3,240620,000.0,W*76
$GPGGA,133104.136,4845.474,N,00226.954,E,1,12,1.0,0.0,M,0.0,M,,*6A
$GPGSA,A,3,01,02,03,04,05,06,07,08,09,10,11,12,1.0,1.0,1.0*30
$GPRMC,133104.136,A,4845.474,N,00226.954,E,038.8,227.3,240620,000.0,W*7B
$GPGGA,133105.136,4845.465,N,00226.945,E,1,12,1.0,0.0,M,0.0,M,,*6B
$GPGSA,A,3,01,02,03,04,05,06,07,08,09,10,11,12,1.0,1.0,1.0*30
$GPRMC,133105.136,A,4845.465,N,00226.945,E,038.8,227.3,240620,000.0,W*7A
$GPGGA,133106.136,4845.456,N,00226.935,E,1,12,1.0,0.0,M,0.0,M,,*6F
$GPGSA,A,3,01,02,03,04,05,06,07,08,09,10,11,12,1.0,1.0,1.0*30
$GPRMC,133106.136,A,4845.456,N,00226.935,E,038.8,227.3,240620,000.0,W*7E
$GPGGA,133107.136,4845.447,N,00226.926,E,1,12,1.0,0.0,M,0.0,M,,*6C
$GPGSA,A,3,01,02,03,04,05,06,07,08,09,10,11,12,1.0,1.0,1.0*30
$GPRMC,133107.136,A,4845.447,N,00226.926,E,038.8,227.3,240620,000.0,W*7D
$GPGGA,133108.136,4845.439,N,00226.916,E,1,12,1.0,0.0,M,0.0,M,,*69
$GPGSA,A,3,01,02,03,04,05,06,07,08,09,10,11,12,1.0,1.0,1.0*30
$GPRMC,133108.136,A,4845.439,N,00226.916,E,038.8,227.3,240620,000.0,W*78
$GPGGA,133109.136,4845.430,N,00226.907,E,1,12,1.0,0.0,M,0.0,M,,*61
$GPGSA,A,3,01,02,03,04,05,06,07,08,09,10,11,12,1.0,1.0,1.0*30
$GPRMC,133109.136,A,4845.430,N,00226.907,E,038.8,227.3,240620,000.0,W*70
$GPGGA,133110.136,4845.421,N,00226.897,E,1,12,1.0,0.0,M,0.0,M,,*61
$GPGSA,A,3,01,02,03,04,05,06,07,08,09,10,11,12,1.0,1.0,1.0*30
$GPRMC,133110.136,A,4845.421,N,00226.897,E,038.8,227.3,240620,000.0,W*70
$GPGGA,133111.136,4845.413,N,00226.888,E,1,12,1.0,0.0,M,0.0,M,,*6F
$GPGSA,A,3,01,02,03,04,05,06,07,08,09,10,11,12,1.0,1.0,1.0*30
$GPRMC,133111.136,A,4845.413,N,00226.888,E,038.8,227.3,240620,000.0,W*7E
$GPGGA,133112.136,4845.404,N,00226.878,E,1,12,1.0,0.0,M,0.0,M,,*65
$GPGSA,A,3,01,02,03,04,05,06,07,08,09,10,11,12,1.0,1.0,1.0*30
$GPRMC,133112.136,A,4845.404,N,00226.878,E,038.8,227.3,240620,000.0,W*74
$GPGGA,133113.136,4845.395,N,00226.868,E,1,12,1.0,0.0,M,0.0,M,,*6A
$GPGSA,A,3,01,02,03,04,05,06,07,08,09,10,11,12,1.0,1.0,1.0*30
$GPRMC,133113.136,A,4845.395,N,00226.868,E,038.8,227.3,240620,000.0,W*7B
$GPGGA,133114.136,4845.386,N,00226.859,E,1,12,1.0,0.0,M,0.0,M,,*6D
$GPGSA,A,3,01,02,03,04,05,06,07,08,09,10,11,12,1.0,1.0,1.0*30
$GPRMC,133114.136,A,4845.386,N,00226.859,E,038.8,227.3,240620,000.0,W*7C
$GPGGA,133115.136,4845.378,N,00226.849,E,1,12,1.0,0.0,M,0.0,M,,*6C
$GPGSA,A,3,01,02,03,04,05,06,07,08,09,10,11,12,1.0,1.0,1.0*30
$GPRMC,133115.136,A,4845.378,N,00226.849,E,038.8,227.3,240620,000.0,W*7D
$GPGGA,133116.136,4845.369,N,00226.840,E,1,12,1.0,0.0,M,0.0,M,,*66
$GPGSA,A,3,01,02,03,04,05,06,07,08,09,10,11,12,1.0,1.0,1.0*30
$GPRMC,133116.136,A,4845.369,N,00226.840,E,038.8,227.3,240620,000.0,W*77
$GPGGA,133117.136,4845.360,N,00226.830,E,1,12,1.0,0.0,M,0.0,M,,*69
$GPGSA,A,3,01,02,03,04,05,06,07,08,09,10,11,12,1.0,1.0,1.0*30
$GPRMC,133117.136,A,4845.360,N,00226.830,E,038.8,227.3,240620,000.0,W*78
$GPGGA,133118.136,4845.351,N,00226.821,E,1,12,1.0,0.0,M,0.0,M,,*64
$GPGSA,A,3,01,02,03,04,05,06,07,08,09,10,11,12,1.0,1.0,1.0*30
$GPRMC,133118.136,A,4845.351,N,00226.821,E,038.8,227.3,240620,000.0,W*75
$GPGGA,133119.136,4845.343,N,00226.811,E,1,12,1.0,0.0,M,0.0,M,,*65
$GPGSA,A,3,01,02,03,04,05,06,07,08,09,10,11,12,1.0,1.0,1.0*30
$GPRMC,133119.136,A,4845.343,N,00226.811,E,038.8,227.3,240620,000.0,W*74
$GPGGA,133120.136,4845.334,N,00226.802,E,1,12,1.0,0.0,M,0.0,M,,*6D
$GPGSA,A,3,01,02,03,04,05,06,07,08,09,10,11,12,1.0,1.0,1.0*30
$GPRMC,133120.136,A,4845.334,N,00226.802,E,038.8,227.3,240620,000.0,W*7C
$GPGGA,133121.136,4845.325,N,00226.792,E,1,12,1.0,0.0,M,0.0,M,,*6A
$GPGSA,A,3,01,02,03,04,05,06,07,08,09,10,11,12,1.0,1.0,1.0*30
$GPRMC,133121.136,A,4845.325,N,00226.792,E,038.8,227.3,240620,000.0,W*7B
$GPGGA,133122.136,4845.316,N,00226.783,E,1,12,1.0,0.0,M,0.0,M,,*69
$GPGSA,A,3,01,02,03,04,05,06,07,08,09,10,11,12,1.0,1.0,1.0*30
$GPRMC,133122.136,A,4845.316,N,00226.783,E,038.8,227.3,240620,000.0,W*78
$GPGGA,133123.136,4845.308,N,00226.773,E,1,12,1.0,0.0,M,0.0,M,,*68
$GPGSA,A,3,01,02,03,04,05,06,07,08,09,10,11,12,1.0,1.0,1.0*30
$GPRMC,133123.136,A,4845.308,N,00226.773,E,038.8,227.3,240620,000.0,W*79
$GPGGA,133124.136,4845.299,N,00226.764,E,1,12,1.0,0.0,M,0.0,M,,*60
$GPGSA,A,3,01,02,03,04,05,06,07,08,09,10,11,12,1.0,1.0,1.0*30
$GPRMC,133124.136,A,4845.299,N,00226.764,E,038.8,227.3,240620,000.0,W*71
$GPGGA,133125.136,4845.290,N,00226.754,E,1,12,1.0,0.0,M,0.0,M,,*6B
$GPGSA,A,3,01,02,03,04,05,06,07,08,09,10,11,12,1.0,1.0,1.0*30
$GPRMC,133125.136,A,4845.290,N,00226.754,E,038.8,227.3,240620,000.0,W*7A
$GPGGA,133126.136,4845.281,N,00226.745,E,1,12,1.0,0.0,M,0.0,M,,*68
$GPGSA,A,3,01,02,03,04,05,06,07,08,09,10,11,12,1.0,1.0,1.0*30
$GPRMC,133126.136,A,4845.281,N,00226.745,E,038.8,227.3,240620,000.0,W*79
$GPGGA,133127.136,4845.273,N,00226.735,E,1,12,1.0,0.0,M,0.0,M,,*63
$GPGSA,A,3,01,02,03,04,05,06,07,08,09,10,11,12,1.0,1.0,1.0*30
$GPRMC,133127.136,A,4845.273,N,00226.735,E,038.8,227.3,240620,000.0,W*72
$GPGGA,133128.136,4845.264,N,00226.726,E,1,12,1.0,0.0,M,0.0,M,,*68
$GPGSA,A,3,01,02,03,04,05,06,07,08,09,10,11,12,1.0,1.0,1.0*30
$GPRMC,133128.136,A,4845.264,N,00226.726,E,038.8,227.3,240620,000.0,W*79
$GPGGA,133129.136,4845.255,N,00226.716,E,1,12,1.0,0.0,M,0.0,M,,*68
$GPGSA,A,3,01,02,03,04,05,06,07,08,09,10,11,12,1.0,1.0,1.0*30
$GPRMC,133129.136,A,4845.255,N,00226.716,E,038.8,227.3,240620,000.0,W*79
$GPGGA,133130.136,4845.246,N,00226.707,E,1,12,1.0,0.0,M,0.0,M,,*62
$GPGSA,A,3,01,02,03,04,05,06,07,08,09,10,11,12,1.0,1.0,1.0*30
$GPRMC,133130.136,A,4845.246,N,00226.707,E,038.8,227.3,240620,000.0,W*73
$GPGGA,133131.136,4845.238,N,00226.697,E,1,12,1.0,0.0,M,0.0,M,,*62
$GPGSA,A,3,01,02,03,04,05,06,07,08,09,10,11,12,1.0,1.0,1.0*30
$GPRMC,133131.136,A,4845.238,N,00226.697,E,038.8,227.3,240620,000.0,W*73
$GPGGA,133132.136,4845.229,N,00226.688,E,1,12,1.0,0.0,M,0.0,M,,*6F
$GPGSA,A,3,01,02,03,04,05,06,07,08,09,10,11,12,1.0,1.0,1.0*30
$GPRMC,133132.136,A,4845.229,N,00226.688,E,038.8,227.3,240620,000.0,W*7E
$GPGGA,133133.136,4845.220,N,00226.678,E,1,12,1.0,0.0,M,0.0,M,,*68
$GPGSA,A,3,01,02,03,04,05,06,07,08,09,10,11,12,1.0,1.0,1.0*30
$GPRMC,133133.136,A,4845.220,N,00226.678,E,038.8,227.3,240620,000.0,W*79
$GPGGA,133134.136,4845.211,N,00226.669,E,1,12,1.0,0.0,M,0.0,M,,*6D
$GPGSA,A,3,01,02,03,04,05,06,07,08,09,10,11,12,1.0,1.0,1.0*30
$GPRMC,133134.136,A,4845.211,N,00226.669,E,038.8,227.3,240620,000.0,W*7C
$GPGGA,133135.136,4845.203,N,00226.659,E,1,12,1.0,0.0,M,0.0,M,,*6C
$GPGSA,A,3,01,02,03,04,05,06,07,08,09,10,11,12,1.0,1.0,1.0*30
$GPRMC,133135.136,A,4845.203,N,00226.659,E,038.8,227.3,240620,000.0,W*7D
$GPGGA,133136.136,4845.194,N,00226.650,E,1,12,1.0,0.0,M,0.0,M,,*6B
$GPGSA,A,3,01,02,03,04,05,06,07,08,09,10,11,12,1.0,1.0,1.0*30
$GPRMC,133136.136,A,4845.194,N,00226.650,E,038.8,227.3,240620,000.0,W*7A
$GPGGA,133137.136,4845.185,N,00226.640,E,1,12,1.0,0.0,M,0.0,M,,*6B
$GPGSA,A,3,01,02,03,04,05,06,07,08,09,10,11,12,1.0,1.0,1.0*30
$GPRMC,133137.136,A,4845.185,N,00226.640,E,038.8,227.3,240620,000.0,W*7A
$GPGGA,133138.136,4845.176,N,00226.631,E,1,12,1.0,0.0,M,0.0,M,,*6E
$GPGSA,A,3,01,02,03,04,05,06,07,08,09,10,11,12,1.0,1.0,1.0*30
$GPRMC,133138.136,A,4845.176,N,00226.631,E,038.8,227.3,240620,000.0,W*7F
$GPGGA,133139.136,4845.168,N,00226.621,E,1,12,1.0,0.0,M,0.0,M,,*61
$GPGSA,A,3,01,02,03,04,05,06,07,08,09,10,11,12,1.0,1.0,1.0*30
$GPRMC,133139.136,A,4845.168,N,00226.621,E,038.8,227.3,240620,000.0,W*70
$GPGGA,133140.136,4845.159,N,00226.612,E,1,12,1.0,0.0,M,0.0,M,,*6D
$GPGSA,A,3,01,02,03,04,05,06,07,08,09,10,11,12,1.0,1.0,1.0*30
$GPRMC,133140.136,A,4845.159,N,00226.612,E,038.8,227.3,240620,000.0,W*7C
$GPGGA,133141.136,4845.150,N,00226.602,E,1,12,1.0,0.0,M,0.0,M,,*64
$GPGSA,A,3,01,02,03,04,05,06,07,08,09,10,11,12,1.0,1.0,1.0*30
$GPRMC,133141.136,A,4845.150,N,00226.602,E,038.8,227.3,240620,000.0,W*75
$GPGGA,133142.136,4845.141,N,00226.593,E,1,12,1.0,0.0,M,0.0,M,,*6C
$GPGSA,A,3,01,02,03,04,05,06,07,08,09,10,11,12,1.0,1.0,1.0*30
$GPRMC,133142.136,A,4845.141,N,00226.593,E,038.8,227.3,240620,000.0,W*7D
$GPGGA,133143.136,4845.133,N,00226.583,E,1,12,1.0,0.0,M,0.0,M,,*69
$GPGSA,A,3,01,02,03,04,05,06,07,08,09,10,11,12,1.0,1.0,1.0*30
$GPRMC,133143.136,A,4845.133,N,00226.583,E,038.8,227.3,240620,000.0,W*78
$GPGGA,133144.136,4845.124,N,00226.574,E,1,12,1.0,0.0,M,0.0,M,,*60
$GPGSA,A,3,01,02,03,04,05,06,07,08,09,10,11,12,1.0,1.0,1.0*30
$GPRMC,133144.136,A,4845.124,N,00226.574,E,038.8,227.3,240620,000.0,W*71
$GPGGA,133145.136,4845.115,N,00226.564,E,1,12,1.0,0.0,M,0.0,M,,*62
$GPGSA,A,3,01,02,03,04,05,06,07,08,09,10,11,12,1.0,1.0,1.0*30
$GPRMC,133145.136,A,4845.115,N,00226.564,E,038.8,227.3,240620,000.0,W*73
$GPGGA,133146.136,4845.106,N,00226.555,E,1,12,1.0,0.0,M,0.0,M,,*61
$GPGSA,A,3,01,02,03,04,05,06,07,08,09,10,11,12,1.0,1.0,1.0*30
$GPRMC,133146.136,A,4845.106,N,00226.555,E,038.8,227.3,240620,000.0,W*70
$GPGGA,133147.136,4845.098,N,00226.545,E,1,12,1.0,0.0,M,0.0,M,,*67
$GPGSA,A,3,01,02,03,04,05,06,07,08,09,10,11,12,1.0,1.0,1.0*30
$GPRMC,133147.136,A,4845.098,N,00226.545,E,038.8,227.3,240620,000.0,W*76
$GPGGA,133148.136,4845.089,N,00226.536,E,1,12,1.0,0.0,M,0.0,M,,*6C
$GPGSA,A,3,01,02,03,04,05,06,07,08,09,10,11,12,1.0,1.0,1.0*30
$GPRMC,133148.136,A,4845.089,N,00226.536,E,038.8,227.3,240620,000.0,W*7D
$GPGGA,133149.136,4845.080,N,00226.526,E,1,12,1.0,0.0,M,0.0,M,,*65
$GPGSA,A,3,01,02,03,04,05,06,07,08,09,10,11,12,1.0,1.0,1.0*30
$GPRMC,133149.136,A,4845.080,N,00226.526,E,038.8,227.3,240620,000.0,W*74
$GPGGA,133150.136,4845.072,N,00226.517,E,1,12,1.0,0.0,M,0.0,M,,*62
$GPGSA,A,3,01,02,03,04,05,06,07,08,09,10,11,12,1.0,1.0,1.0*30
$GPRMC,133150.136,A,4845.072,N,00226.517,E,038.8,227.3,240620,000.0,W*73
$GPGGA,133151.136,4845.063,N,00226.507,E,1,12,1.0,0.0,M,0.0,M,,*62
$GPGSA,A,3,01,02,03,04,05,06,07,08,09,10,11,12,1.0,1.0,1.0*30
$GPRMC,133151.136,A,4845.063,N,00226.507,E,038.8,227.3,240620,000.0,W*73
$GPGGA,133152.136,4845.054,N,00226.498,E,1,12,1.0,0.0,M,0.0,M,,*62
$GPGSA,A,3,01,02,03,04,05,06,07,08,09,10,11,12,1.0,1.0,1.0*30
$GPRMC,133152.136,A,4845.054,N,00226.498,E,038.8,227.3,240620,000.0,W*73
$GPGGA,133153.136,4845.045,N,00226.488,E,1,12,1.0,0.0,M,0.0,M,,*62
$GPGSA,A,3,01,02,03,04,05,06,07,08,09,10,11,12,1.0,1.0,1.0*30
$GPRMC,133153.136,A,4845.045,N,00226.488,E,038.8,227.3,240620,000.0,W*73
$GPGGA,133154.136,4845.037,N,00226.479,E,1,12,1.0,0.0,M,0.0,M,,*6E
$GPGSA,A,3,01,02,03,04,05,06,07,08,09,10,11,12,1.0,1.0,1.0*30
$GPRMC,133154.136,A,4845.037,N,00226.479,E,038.8,227.3,240620,000.0,W*7F
$GPGGA,133155.136,4845.028,N,00226.469,E,1,12,1.0,0.0,M,0.0,M,,*60
$GPGSA,A,3,01,02,03,04,05,06,07,08,09,10,11,12,1.0,1.0,1.0*30
$GPRMC,133155.136,A,4845.028,N,00226.469,E,038.8,227.3,240620,000.0,W*71
$GPGGA,133156.136,4845.019,N,00226.460,E,1,12,1.0,0.0,M,0.0,M,,*68
$GPGSA,A,3,01,02,03,04,05,06,07,08,09,10,11,12,1.0,1.0,1.0*30
$GPRMC,133156.136,A,4845.019,N,00226.460,E,038.8,227.3,240620,000.0,W*79
$GPGGA,133157.136,4845.010,N,00226.450,E,1,12,1.0,0.0,M,0.0,M,,*63
$GPGSA,A,3,01,02,03,04,05,06,07,08,09,10,11,12,1.0,1.0,1.0*30
$GPRMC,133157.136,A,4845.010,N,00226.450,E,038.8,227.3,240620,000.0,W*72
$GPGGA,133158.136,4845.002,N,00226.441,E,1,12,1.0,0.0,M,0.0,M,,*6F
$GPGSA,A,3,01,02,03,04,05,06,07,08,09,10,11,12,1.0,1.0,1.0*30
$GPRMC,133158.136,A,4845.002,N,00226.441,E,038.8,227.3,240620,000.0,W*7E
$GPGGA,133159.136,4844.993,N,00226.431,E,1,12,1.0,0.0,M,0.0,M,,*69
$GPGSA,A,3,01,02,03,04,05,06,07,08,09,10,11,12,1.0,1.0,1.0*30
$GPRMC,133159.136,A,4844.993,N,00226.431,E,038.8,227.3,240620,000.0,W*78
$GPGGA,133200.136,4844.984,N,00226.421,E,1,12,1.0,0.0,M,0.0,M,,*61
$GPGSA,A,3,01,02,03,04,05,06,07,08,09,10,11,12,1.0,1.0,1.0*30
$GPRMC,133200.136,A,4844.984,N,00226.421,E,038.8,227.3,240620,000.0,W*70
$GPGGA,133201.136,4844.975,N,00226.412,E,1,12,1.0,0.0,M,0.0,M,,*6E
$GPGSA,A,3,01,02,03,04,05,06,07,08,09,10,11,12,1.0,1.0,1.0*30
$GPRMC,133201.136,A,4844.975,N,00226.412,E,038.8,227.3,240620,000.0,W*7F
$GPGGA,133202.136,4844.967,N,00226.402,E,1,12,1.0,0.0,M,0.0,M,,*6F
$GPGSA,A,3,01,02,03,04,05,06,07,08,09,10,11,12,1.0,1.0,1.0*30
$GPRMC,133202.136,A,4844.967,N,00226.402,E,038.8,227.3,240620,000.0,W*7E
$GPGGA,133203.136,4844.958,N,00226.393,E,1,12,1.0,0.0,M,0.0,M,,*6D
$GPGSA,A,3,01,02,03,04,05,06,07,08,09,10,11,12,1.0,1.0,1.0*30
$GPRMC,133203.136,A,4844.958,N,00226.393,E,038.8,227.3,240620,000.0,W*7C
$GPGGA,133204.136,4844.949,N,00226.383,E,1,12,1.0,0.0,M,0.0,M,,*6B
$GPGSA,A,3,01,02,03,04,05,06,07,08,09,10,11,12,1.0,1.0,1.0*30
$GPRMC,133204.136,A,4844.949,N,00226.383,E,038.8,227.3,240620,000.0,W*7A
$GPGGA,133205.136,4844.940,N,00226.374,E,1,12,1.0,0.0,M,0.0,M,,*6B
$GPGSA,A,3,01,02,03,04,05,06,07,08,09,10,11,12,1.0,1.0,1.0*30
$GPRMC,133205.136,A,4844.940,N,00226.374,E,038.8,227.3,240620,000.0,W*7A
$GPGGA,133206.136,4844.932,N,00226.364,E,1,12,1.0,0.0,M,0.0,M,,*6C
$GPGSA,A,3,01,02,03,04,05,06,07,08,09,10,11,12,1.0,1.0,1.0*30
$GPRMC,133206.136,A,4844.932,N,00226.364,E,038.8,227.3,240620,000.0,W*7D
$GPGGA,133207.136,4844.923,N,00226.355,E,1,12,1.0,0.0,M,0.0,M,,*6F
$GPGSA,A,3,01,02,03,04,05,06,07,08,09,10,11,12,1.0,1.0,1.0*30
$GPRMC,133207.136,A,4844.923,N,00226.355,E,038.8,227.3,240620,000.0,W*7E
$GPGGA,133208.136,4844.914,N,00226.345,E,1,12,1.0,0.0,M,0.0,M,,*65
$GPGSA,A,3,01,02,03,04,05,06,07,08,09,10,11,12,1.0,1.0,1.0*30
$GPRMC,133208.136,A,4844.914,N,00226.345,E,038.8,227.3,240620,000.0,W*74
$GPGGA,133209.136,4844.905,N,00226.336,E,1,12,1.0,0.0,M,0.0,M,,*60
$GPGSA,A,3,01,02,03,04,05,06,07,08,09,10,11,12,1.0,1.0,1.0*30
$GPRMC,133209.136,A,4844.905,N,00226.336,E,038.8,227.3,240620,000.0,W*71
$GPGGA,133210.136,4844.897,N,00226.326,E,1,12,1.0,0.0,M,0.0,M,,*63
$GPGSA,A,3,01,02,03,04,05,06,07,08,09,10,11,12,1.0,1.0,1.0*30
$GPRMC,133210.136,A,4844.897,N,00226.326,E,038.8,227.3,240620,000.0,W*72
$GPGGA,133211.136,4844.888,N,00226.317,E,1,12,1.0,0.0,M,0.0,M,,*6E
$GPGSA,A,3,01,02,03,04,05,06,07,08,09,10,11,12,1.0,1.0,1.0*30
$GPRMC,133211.136,A,4844.888,N,00226.317,E,038.8,227.3,240620,000.0,W*7F
$GPGGA,133212.136,4844.879,N,00226.307,E,1,12,1.0,0.0,M,0.0,M,,*62
$GPGSA,A,3,01,02,03,04,05,06,07,08,09,10,11,12,1.0,1.0,1.0*30
$GPRMC,133212.136,A,4844.879,N,00226.307,E,038.8,227.3,240620,000.0,W*73
$GPGGA,133213.136,4844.870,N,00226.298,E,1,12,1.0,0.0,M,0.0,M,,*6D
$GPGSA,A,3,01,02,03,04,05,06,07,08,09,10,11,12,1.0,1.0,1.0*30
$GPRMC,133213.136,A,4844.870,N,00226.298,E,038.8,227.3,240620,000.0,W*7C
$GPGGA,133214.136,4844.862,N,00226.288,E,1,12,1.0,0.0,M,0.0,M,,*68
$GPGSA,A,3,01,02,03,04,05,06,07,08,09,10,11,12,1.0,1.0,1.0*30
$GPRMC,133214.136,A,4844.862,N,00226.288,E,038.8,227.3,240620,000.0,W*79
$GPGGA,133215.136,4844.853,N,00226.279,E,1,12,1.0,0.0,M,0.0,M,,*65
$GPGSA,A,3,01,02,03,04,05,06,07,08,09,10,11,12,1.0,1.0,1.0*30
$GPRMC,133215.136,A,4844.853,N,00226.279,E,038.8,227.3,240620,000.0,W*74
$GPGGA,133216.136,4844.844,N,00226.269,E,1,12,1.0,0.0,M,0.0,M,,*61
$GPGSA,A,3,01,02,03,04,05,06,07,08,09,10,11,12,1.0,1.0,1.0*30
$GPRMC,133216.136,A,4844.844,N,00226.269,E,038.8,227.3,240620,000.0,W*70
$GPGGA,133217.136,4844.835,N,00226.260,E,1,12,1.0,0.0,M,0.0,M,,*6F
$GPGSA,A,3,01,02,03,04,05,06,07,08,09,10,11,12,1.0,1.0,1.0*30
$GPRMC,133217.136,A,4844.835,N,00226.260,E,038.8,227.3,240620,000.0,W*7E
$GPGGA,133218.136,4844.827,N,00226.250,E,1,12,1.0,0.0,M,0.0,M,,*60
$GPGSA,A,3,01,02,03,04,05,06,07,08,09,10,11,12,1.0,1.0,1.0*30
$GPRMC,133218.136,A,4844.827,N,00226.250,E,038.8,227.3,240620,000.0,W*71
$GPGGA,133219.136,4844.818,N,00226.241,E,1,12,1.0,0.0,M,0.0,M,,*6D
$GPGSA,A,3,01,02,03,04,05,06,07,08,09,10,11,12,1.0,1.0,1.0*30
$GPRMC,133219.136,A,4844.818,N,00226.241,E,038.8,227.3,240620,000.0,W*7C
$GPGGA,133220.136,4844.809,N,00226.231,E,1,12,1.0,0.0,M,0.0,M,,*60
$GPGSA,A,3,01,02,03,04,05,06,07,08,09,10,11,12,1.0,1.0,1.0*30
$GPRMC,133220.136,A,4844.809,N,00226.231,E,038.8,227.3,240620,000.0,W*71
$GPGGA,133221.136,4844.800,N,00226.222,E,1,12,1.0,0.0,M,0.0,M,,*6A
$GPGSA,A,3,01,02,03,04,05,06,07,08,09,10,11,12,1.0,1.0,1.0*30
$GPRMC,133221.136,A,4844.800,N,00226.222,E,038.8,227.3,240620,000.0,W*7B
$GPGGA,133222.136,4844.792,N,00226.212,E,1,12,1.0,0.0,M,0.0,M,,*6E
$GPGSA,A,3,01,02,03,04,05,06,07,08,09,10,11,12,1.0,1.0,1.0*30
$GPRMC,133222.136,A,4844.792,N,00226.212,E,038.8,227.3,240620,000.0,W*7F
$GPGGA,133223.136,4844.783,N,00226.203,E,1,12,1.0,0.0,M,0.0,M,,*6F
$GPGSA,A,3,01,02,03,04,05,06,07,08,09,10,11,12,1.0,1.0,1.0*30
$GPRMC,133223.136,A,4844.783,N,00226.203,E,038.8,227.3,240620,000.0,W*7E
$GPGGA,133224.136,4844.774,N,00226.193,E,1,12,1.0,0.0,M,0.0,M,,*6A
$GPGSA,A,3,01,02,03,04,05,06,07,08,09,10,11,12,1.0,1.0,1.0*30
$GPRMC,133224.136,A,4844.774,N,00226.193,E,038.8,227.3,240620,000.0,W*7B
$GPGGA,133225.136,4844.765,N,00226.184,E,1,12,1.0,0.0,M,0.0,M,,*6D
$GPGSA,A,3,01,02,03,04,05,06,07,08,09,10,11,12,1.0,1.0,1.0*30
$GPRMC,133225.136,A,4844.765,N,00226.184,E,038.8,227.3,240620,000.0,W*7C
$GPGGA,133226.136,4844.757,N,00226.174,E,1,12,1.0,0.0,M,0.0,M,,*60
$GPGSA,A,3,01,02,03,04,05,06,07,08,09,10,11,12,1.0,1.0,1.0*30
$GPRMC,133226.136,A,4844.757,N,00226.174,E,038.8,227.3,240620,000.0,W*71
$GPGGA,133227.136,4844.748,N,00226.165,E,1,12,1.0,0.0,M,0.0,M,,*6F
$GPGSA,A,3,01,02,03,04,05,06,07,08,09,10,11,12,1.0,1.0,1.0*30
$GPRMC,133227.136,A,4844.748,N,00226.165,E,038.8,227.3,240620,000.0,W*7E
$GPGGA,133228.136,4844.739,N,00226.155,E,1,12,1.0,0.0,M,0.0,M,,*65
$GPGSA,A,3,01,02,03,04,05,06,07,08,09,10,11,12,1.0,1.0,1.0*30
$GPRMC,133228.136,A,4844.739,N,00226.155,E,038.8,227.3,240620,000.0,W*74
$GPGGA,133229.136,4844.731,N,00226.146,E,1,12,1.0,0.0,M,0.0,M,,*6E
$GPGSA,A,3,01,02,03,04,05,06,07,08,09,10,11,12,1.0,1.0,1.0*30
$GPRMC,133229.136,A,4844.731,N,00226.146,E,038.8,227.3,240620,000.0,W*7F
$GPGGA,133230.136,4844.722,N,00226.136,E,1,12,1.0,0.0,M,0.0,M,,*63
$GPGSA,A,3,01,02,03,04,05,06,07,08,09,10,11,12,1.0,1.0,1.0*30
$GPRMC,133230.136,A,4844.722,N,00226.136,E,038.8,227.3,240620,000.0,W*72
$GPGGA,133231.136,4844.713,N,00226.127,E,1,12,1.0,0.0,M,0.0,M,,*60
$GPGSA,A,3,01,02,03,04,05,06,07,08,09,10,11,12,1.0,1.0,1.0*30
$GPRMC,133231.136,A,4844.713,N,00226.127,E,038.8,227.3,240620,000.0,W*71
$GPGGA,133232.136,4844.704,N,00226.117,E,1,12,1.0,0.0,M,0.0,M,,*66
$GPGSA,A,3,01,02,03,04,05,06,07,08,09,10,11,12,1.0,1.0,1.0*30
$GPRMC,133232.136,A,4844.704,N,00226.117,E,038.8,227.3,240620,000.0,W*77
$GPGGA,133233.136,4844.696,N,00226.108,E,1,12,1.0,0.0,M,0.0,M,,*63
$GPGSA,A,3,01,02,03,04,05,06,07,08,09,10,11,12,1.0,1.0,1.0*30
$GPRMC,133233.136,A,4844.696,N,00226.108,E,038.8,227.3,240620,000.0,W*72
$GPGGA,133234.136,4844.687,N,00226.098,E,1,12,1.0,0.0,M,0.0,M,,*6C
$GPGSA,A,3,01,02,03,04,05,06,07,08,09,10,11,12,1.0,1.0,1.0*30
$GPRMC,133234.136,A,4844.687,N,00226.098,E,038.8,227.3,240620,000.0,W*7D
$GPGGA,133235.136,4844.678,N,00226.089,E,1,12,1.0,0.0,M,0.0,M,,*6D
$GPGSA,A,3,01,02,03,04,05,06,07,08,09,10,11,12,1.0,1.0,1.0*30
$GPRMC,133235.136,A,4844.678,N,00226.089,E,038.8,227.3,240620,000.0,W*7C
$GPGGA,133236.136,4844.669,N,00226.079,E,1,12,1.0,0.0,M,0.0,M,,*61
$GPGSA,A,3,01,02,03,04,05,06,07,08,09,10,11,12,1.0,1.0,1.0*30
$GPRMC,133236.136,A,4844.669,N,00226.079,E,038.8,227.3,240620,000.0,W*70
$GPGGA,133237.136,4844.661,N,00226.070,E,1,12,1.0,0.0,M,0.0,M,,*61
$GPGSA,A,3,01,02,03,04,05,06,07,08,09,10,11,12,1.0,1.0,1.0*30
$GPRMC,133237.136,A,4844.661,N,00226.070,E,038.8,227.3,240620,000.0,W*70
$GPGGA,133238.136,4844.652,N,00226.060,E,1,12,1.0,0.0,M,0.0,M,,*6F
$GPGSA,A,3,01,02,03,04,05,06,07,08,09,10,11,12,1.0,1.0,1.0*30
$GPRMC,133238.136,A,4844.652,N,00226.060,E,038.8,227.3,240620,000.0,W*7E
$GPGGA,133239.136,4844.643,N,00226.051,E,1,12,1.0,0.0,M,0.0,M,,*6C
$GPGSA,A,3,01,02,03,04,05,06,07,08,09,10,11,12,1.0,1.0,1.0*30
$GPRMC,133239.136,A,4844.643,N,00226.051,E,038.8,227.3,240620,000.0,W*7D
$GPGGA,133240.136,4844.634,N,00226.041,E,1,12,1.0,0.0,M,0.0,M,,*63
$GPGSA,A,3,01,02,03,04,05,06,07,08,09,10,11,12,1.0,1.0,1.0*30
$GPRMC,133240.136,A,4844.634,N,00226.041,E,038.8,227.3,240620,000.0,W*72
$GPGGA,133241.136,4844.626,N,00226.032,E,1,12,1.0,0.0,M,0.0,M,,*65
$GPGSA,A,3,01,02,03,04,05,06,07,08,09,10,11,12,1.0,1.0,1.0*30
$GPRMC,133241.136,A,4844.626,N,00226.032,E,038.8,227.3,240620,000.0,W*74
$GPGGA,133242.136,4844.617,N,00226.022,E,1,12,1.0,0.0,M,0.0,M,,*65
$GPGSA,A,3,01,02,03,04,05,06,07,08,09,10,11,12,1.0,1.0,1.0*30
$GPRMC,133242.136,A,4844.617,N,00226.022,E,038.8,227.3,240620,000.0,W*74
$GPGGA,133243.136,4844.608,N,00226.013,E,1,12,1.0,0.0,M,0.0,M,,*68
$GPGSA,A,3,01,02,03,04,05,06,07,08,09,10,11,12,1.0,1.0,1.0*30
$GPRMC,133243.136,A,4844.608,N,00226.013,E,038.8,227.3,240620,000.0,W*79
$GPGGA,133244.136,4844.599,N,00226.003,E,1,12,1.0,0.0,M,0.0,M,,*65
$GPGSA,A,3,01,02,03,04,05,06,07,08,09,10,11,12,1.0,1.0,1.0*30
$GPRMC,133244.136,A,4844.599,N,00226.003,E,038.8,227.3,240620,000.0,W*74
$GPGGA,133245.136,4844.591,N,00225.994,E,1,12,1.0,0.0,M,0.0,M,,*68
$GPGSA,A,3,01,02,03,04,05,06,07,08,09,10,11,12,1.0,1.0,1.0*30
$GPRMC,133245.136,A,4844.591,N,00225.994,E,038.8,227.3,240620,000.0,W*79
$GPGGA,133246.136,4844.582,N,00225.984,E,1,12,1.0,0.0,M,0.0,M,,*68
$GPGSA,A,3,01,02,03,04,05,06,07,08,09,10,11,12,1.0,1.0,1.0*30
$GPRMC,133246.136,A,4844.582,N,00225.984,E,038.8,227.3,240620,000.0,W*79
$GPGGA,133247.136,4844.573,N,00225.974,E,1,12,1.0,0.0,M,0.0,M,,*68
$GPGSA,A,3,01,02,03,04,05,06,07,08,09,10,11,12,1.0,1.0,1.0*30
$GPRMC,133247.136,A,4844.573,N,00225.974,E,038.8,227.3,240620,000.0,W*79
$GPGGA,133248.136,4844.564,N,00225.965,E,1,12,1.0,0.0,M,0.0,M,,*61
$GPGSA,A,3,01,02,03,04,05,06,07,08,09,10,11,12,1.0,1.0,1.0*30
$GPRMC,133248.136,A,4844.564,N,00225.965,E,038.8,227.3,240620,000.0,W*70
$GPGGA,133249.136,4844.556,N,00225.955,E,1,12,1.0,0.0,M,0.0,M,,*62
$GPGSA,A,3,01,02,03,04,05,06,07,08,09,10,11,12,1.0,1.0,1.0*30
$GPRMC,133249.136,A,4844.556,N,00225.955,E,038.8,227.3,240620,000.0,W*73
$GPGGA,133250.136,4844.547,N,00225.946,E,1,12,1.0,0.0,M,0.0,M,,*68
$GPGSA,A,3,01,02,03,04,05,06,07,08,09,10,11,12,1.0,1.0,1.0*30
$GPRMC,133250.136,A,4844.547,N,00225.946,E,038.8,227.3,240620,000.0,W*79
$GPGGA,133251.136,4844.538,N,00225.936,E,1,12,1.0,0.0,M,0.0,M,,*66
$GPGSA,A,3,01,02,03,04,05,06,07,08,09,10,11,12,1.0,1.0,1.0*30
$GPRMC,133251.136,A,4844.538,N,00225.936,E,038.8,227.3,240620,000.0,W*77
$GPGGA,133252.136,4844.529,N,00225.927,E,1,12,1.0,0.0,M,0.0,M,,*65
$GPGSA,A,3,01,02,03,04,05,06,07,08,09,10,11,12,1.0,1.0,1.0*30
$GPRMC,133252.136,A,4844.529,N,00225.927,E,038.8,227.3,240620,000.0,W*74
$GPGGA,133253.136,4844.521,N,00225.917,E,1,12,1.0,0.0,M,0.0,M,,*6F
$GPGSA,A,3,01,02,03,04,05,06,07,08,09,10,11,12,1.0,1.0,1.0*30
$GPRMC,133253.136,A,4844.521,N,00225.917,E,038.8,227.3,240620,000.0,W*7E
$GPGGA,133254.136,4844.512,N,00225.908,E,1,12,1.0,0.0,M,0.0,M,,*66
$GPGSA,A,3,01,02,03,04,05,06,07,08,09,10,11,12,1.0,1.0,1.0*30
$GPRMC,133254.136,A,4844.512,N,00225.908,E,038.8,227.3,240620,000.0,W*77
$GPGGA,133255.136,4844.503,N,00225.898,E,1,12,1.0,0.0,M,0.0,M,,*6F
$GPGSA,A,3,01,02,03,04,05,06,07,08,09,10,11,12,1.0,1.0,1.0*30
$GPRMC,133255.136,A,4844.503,N,00225.898,E,038.8,227.3,240620,000.0,W*7E
$GPGGA,133256.136,4844.494,N,00225.889,E,1,12,1.0,0.0,M,0.0,M,,*63
$GPGSA,A,3,01,02,03,04,05,06,07,08,09,10,11,12,1.0,1.0,1.0*30
$GPRMC,133256.136,A,4844.494,N,00225.889,E,038.8,227.3,240620,000.0,W*72
$GPGGA,133257.136,4844.486,N,00225.879,E,1,12,1.0,0.0,M,0.0,M,,*6E
$GPGSA,A,3,01,02,03,04,05,06,07,08,09,10,11,12,1.0,1.0,1.0*30
$GPRMC,133257.136,A,4844.486,N,00225.879,E,038.8,227.3,240620,000.0,W*7F
$GPGGA,133258.136,4844.477,N,00225.870,E,1,12,1.0,0.0,M,0.0,M,,*66
$GPGSA,A,3,01,02,03,04,05,06,07,08,09,10,11,12,1.0,1.0,1.0*30
$GPRMC,133258.136,A,4844.477,N,00225.870,E,038.8,227.3,240620,000.0,W*77
$GPGGA,133259.136,4844.468,N,00225.860,E,1,12,1.0,0.0,M,0.0,M,,*68
$GPGSA,A,3,01,02,03,04,05,06,07,08,09,10,11,12,1.0,1.0,1.0*30
$GPRMC,133259.136,A,4844.468,N,00225.860,E,038.8,227.3,240620,000.0,W*79
$GPGGA,133300.136,4844.459,N,00225.851,E,1,12,1.0,0.0,M,0.0,M,,*65
$GPGSA,A,3,01,02,03,04,05,06,07,08,09,10,11,12,1.0,1.0,1.0*30
$GPRMC,133300.136,A,4844.459,N,00225.851,E,038.8,227.3,240620,000.0,W*74
$GPGGA,133301.136,4844.451,N,00225.841,E,1,12,1.0,0.0,M,0.0,M,,*6D
$GPGSA,A,3,01,02,03,04,05,06,07,08,09,10,11,12,1.0,1.0,1.0*30
$GPRMC,133301.136,A,4844.451,N,00225.841,E,038.8,227.3,240620,000.0,W*7C
$GPGGA,133302.136,4844.442,N,00225.832,E,1,12,1.0,0.0,M,0.0,M,,*68
$GPGSA,A,3,01,02,03,04,05,06,07,08,09,10,11,12,1.0,1.0,1.0*30
$GPRMC,133302.136,A,4844.442,N,00225.832,E,038.8,227.3,240620,000.0,W*79
$GPGGA,133303.136,4844.433,N,00225.822,E,1,12,1.0,0.0,M,0.0,M,,*6E
$GPGSA,A,3,01,02,03,04,05,06,07,08,09,10,11,12,1.0,1.0,1.0*30
$GPRMC,133303.136,A,4844.433,N,00225.822,E,038.8,227.3,240620,000.0,W*7F
$GPGGA,133304.136,4844.424,N,00225.813,E,1,12,1.0,0.0,M,0.0,M,,*6D
$GPGSA,A,3,01,02,03,04,05,06,07,08,09,10,11,12,1.0,1.0,1.0*30
$GPRMC,133304.136,A,4844.424,N,00225.813,E,038.8,227.3,240620,000.0,W*7C
$GPGGA,133305.136,4844.416,N,00225.803,E,1,12,1.0,0.0,M,0.0,M,,*6C
$GPGSA,A,3,01,02,03,04,05,06,07,08,09,10,11,12,1.0,1.0,1.0*30
$GPRMC,133305.136,A,4844.416,N,00225.803,E,038.8,227.3,240620,000.0,W*7D
$GPGGA,133306.136,4844.407,N,00225.794,E,1,12,1.0,0.0,M,0.0,M,,*6E
$GPGSA,A,3,01,02,03,04,05,06,07,08,09,10,11,12,1.0,1.0,1.0*30
$GPRMC,133306.136,A,4844.407,N,00225.794,E,038.8,227.3,240620,000.0,W*7F
$GPGGA,133307.136,4844.398,N,00225.784,E,1,12,1.0,0.0,M,0.0,M,,*6F
$GPGSA,A,3,01,02,03,04,05,06,07,08,09,10,11,12,1.0,1.0,1.0*30
$GPRMC,133307.136,A,4844.398,N,00225.784,E,038.8,227.3,240620,000.0,W*7E
$GPGGA,133308.136,4844.390,N,00225.775,E,1,12,1.0,0.0,M,0.0,M,,*66
$GPGSA,A,3,01,02,03,04,05,06,07,08,09,10,11,12,1.0,1.0,1.0*30
$GPRMC,133308.136,A,4844.390,N,00225.775,E,038.8,227.3,240620,000.0,W*77
$GPGGA,133309.136,4844.381,N,00225.765,E,1,12,1.0,0.0,M,0.0,M,,*66
$GPGSA,A,3,01,02,03,04,05,06,07,08,09,10,11,12,1.0,1.0,1.0*30
$GPRMC,133309.136,A,4844.381,N,00225.765,E,038.8,227.3,240620,000.0,W*77
$GPGGA,133310.136,4844.372,N,00225.756,E,1,12,1.0,0.0,M,0.0,M,,*62
$GPGSA,A,3,01,02,03,04,05,06,07,08,09,10,11,12,1.0,1.0,1.0*30
$GPRMC,133310.136,A,4844.372,N,00225.756,E,038.8,227.3,240620,000.0,W*73
$GPGGA,133311.136,4844.363,N,00225.746,E,1,12,1.0,0.0,M,0.0,M,,*62
$GPGSA,A,3,01,02,03,04,05,06,07,08,09,10,11,12,1.0,1.0,1.0*30
$GPRMC,133311.136,A,4844.363,N,00225.746,E,038.8,227.3,240620,000.0,W*73
$GPGGA,133312.136,4844.355,N,00225.737,E,1,12,1.0,0.0,M,0.0,M,,*62
$GPGSA,A,3,01,02,03,04,05,06,07,08,09,10,11,12,1.0,1.0,1.0*30
$GPRMC,133312.136,A,4844.355,N,00225.737,E,038.8,227.3,240620,000.0,W*73
$GPGGA,133313.136,4844.346,N,00225.727,E,1,12,1.0,0.0,M,0.0,M,,*60
$GPGSA,A,3,01,02,03,04,05,06,07,08,09,10,11,12,1.0,1.0,1.0*30
$GPRMC,133313.136,A,4844.346,N,00225.727,E,038.8,227.3,240620,000.0,W*71
$GPGGA,133314.136,4844.337,N,00225.718,E,1,12,1.0,0.0,M,0.0,M,,*6D
$GPGSA,A,3,01,02,03,04,05,06,07,08,09,10,11,12,1.0,1.0,1.0*30
$GPRMC,133314.136,A,4844.337,N,00225.718,E,038.8,227.3,240620,000.0,W*7C
$GPGGA,133315.136,4844.328,N,00225.708,E,1,12,1.0,0.0,M,0.0,M,,*63
$GPGSA,A,3,01,02,03,04,05,06,07,08,09,10,11,12,1.0,1.0,1.0*30
$GPRMC,133315.136,A,4844.328,N,00225.708,E,038.8,227.3,240620,000.0,W*72
$GPGGA,133316.136,4844.320,N,00225.699,E,1,12,1.0,0.0,M,0.0,M,,*61
$GPGSA,A,3,01,02,03,04,05,06,07,08,09,10,11,12,1.0,1.0,1.0*30
$GPRMC,133316.136,A,4844.320,N,00225.699,E,038.8,227.3,240620,000.0,W*70
$GPGGA,133317.136,4844.311,N,00225.689,E,1,12,1.0,0.0,M,0.0,M,,*63
$GPGSA,A,3,01,02,03,04,05,06,07,08,09,10,11,12,1.0,1.0,1.0*30
$GPRMC,133317.136,A,4844.311,N,00225.689,E,038.8,227.3,240620,000.0,W*72
$GPGGA,133318.136,4844.302,N,00225.680,E,1,12,1.0,0.0,M,0.0,M,,*67
$GPGSA,A,3,01,02,03,04,05,06,07,08,09,10,11,12,1.0,1.0,1.0*30
$GPRMC,133318.136,A,4844.302,N,00225.680,E,038.8,227.3,240620,000.0,W*76
$GPGGA,133319.136,4844.293,N,00225.670,E,1,12,1.0,0.0,M,0.0,M,,*60
$GPGSA,A,3,01,02,03,04,05,06,07,08,09,10,11,12,1.0,1.0,1.0*30
$GPRMC,133319.136,A,4844.293,N,00225.670,E,038.8,227.3,240620,000.0,W*71
$GPGGA,133320.136,4844.285,N,00225.661,E,1,12,1.0,0.0,M,0.0,M,,*6D
$GPGSA,A,3,01,02,03,04,05,06,07,08,09,10,11,12,1.0,1.0,1.0*30
$GPRMC,133320.136,A,4844.285,N,00225.661,E,038.8,227.3,240620,000.0,W*7C
$GPGGA,133321.136,4844.276,N,00225.651,E,1,12,1.0,0.0,M,0.0,M,,*63
$GPGSA,A,3,01,02,03,04,05,06,07,08,09,10,11,12,1.0,1.0,1.0*30
$GPRMC,133321.136,A,4844.276,N,00225.651,E,038.8,227.3,240620,000.0,W*72
$GPGGA,133322.136,4844.267,N,00225.642,E,1,12,1.0,0.0,M,0.0,M,,*62
$GPGSA,A,3,01,02,03,04,05,06,07,08,09,10,11,12,1.0,1.0,1.0*30
$GPRMC,133322.136,A,4844.267,N,00225.642,E,038.8,227.3,240620,000.0,W*73
$GPGGA,133323.136,4844.258,N,00225.632,E,1,12,1.0,0.0,M,0.0,M,,*68
$GPGSA,A,3,01,02,03,04,05,06,07,08,09,10,11,12,1.0,1.0,1.0*30
$GPRMC,133323.136,A,4844.258,N,00225.632,E,038.8,227.3,240620,000.0,W*79
